GlobalID,Detection Date,Lab Status,Submission Date,Latitude,Longitude,FileName
{5AC8034E-5B46-4294-85F0-5B13117EBEFE},2019-12-08 00:00:00,Positive ID,2020-01-15,48.980994,-122.688503,ATT1_DSCN9647.jpg
{5EAD3364-2CA7-4A39-9A53-7F9DCF5D2041},2019-10-30 00:00:00,Positive ID,2020-01-15,48.971949,-122.700941,ATT2_HoireRDBeekeeperReport.jpg
{124B9BFA-7F7B-4B8E-8A56-42E067F0F72E},2019-09-19 00:00:00,Positive ID,2020-02-04,49.149394,-123.943134,ATT4_20190921_152954.jpg
{124B9BFA-7F7B-4B8E-8A56-42E067F0F72E},2019-09-19 00:00:00,Positive ID,2020-02-04,49.149394,-123.943134,ATT5_20190918_230100.jpg
{124B9BFA-7F7B-4B8E-8A56-42E067F0F72E},2019-09-19 00:00:00,Positive ID,2020-02-04,49.149394,-123.943134,ATT6_20190918_235343.jpg
{124B9BFA-7F7B-4B8E-8A56-42E067F0F72E},2019-09-19 00:00:00,Positive ID,2020-02-04,49.149394,-123.943134,ATT7_20190918_214742.jpg
{C4F44511-EA53-4FCF-9422-E1C57703720D},2020-02-29 00:00:00,Negative ID,2020-02-29,48.729596,-122.480035,ATT10_67EAF187-B59C-4F5F-BAAC-9F76E06A96D6.jpg
{C4F44511-EA53-4FCF-9422-E1C57703720D},2020-02-29 00:00:00,Negative ID,2020-02-29,48.729596,-122.480035,ATT9_A8F17F0C-0638-41F3-A001-01D2607B81B4.jpg
{89C867F1-D5ED-48C8-9586-B705F5DA9838},2019-09-07 00:00:00,Negative ID,2020-03-18,47.395721,-123.105188,ATT11_wierd hornet sept 2019.jpg
{81670D96-4143-47B1-A9C8-83977892D53F},2020-03-19 00:00:00,Negative ID,2020-03-19,47.840041,-122.323562,ATT12_35736840-588C-47B3-B81B-454ABFAE6A53.jpg
{81670D96-4143-47B1-A9C8-83977892D53F},2020-03-19 00:00:00,Negative ID,2020-03-19,47.840041,-122.323562,ATT13_F162126B-4A5E-4068-92EB-95392E2F6919.jpg
{81670D96-4143-47B1-A9C8-83977892D53F},2020-03-19 00:00:00,Negative ID,2020-03-19,47.840041,-122.323562,ATT14_4EDB0785-9402-49B4-8FB6-CDBE0A3204E3.jpg
{81670D96-4143-47B1-A9C8-83977892D53F},2020-03-19 00:00:00,Negative ID,2020-03-19,47.840041,-122.323562,ATT15_B83CA488-6286-4934-BA68-A0BD5DF03D1F.jpg
{D30895B7-3994-45A3-BD51-E5BA881833FD},2019-08-30 00:00:00,Negative ID,2020-03-19,47.635058,-122.057332,ATT16_Giant Hornet Sahalee Country Club 9.29.2019.jpg
{5AD8CAF4-AB96-4BFA-8A08-6010C96937F1},2020-03-31 00:00:00,Negative ID,2020-03-31,46.609918,-120.563107,ATT17_F38FCA9B-3D90-4079-8372-BA7A6D509BDF.jpg
{8DFDA283-3AFD-4E9F-9878-7A0F22E1B917},2019-07-23 00:00:00,Negative ID,2020-04-01,48.006763,-122.462053,ATT18_IMG_2855.jpg
{8DFDA283-3AFD-4E9F-9878-7A0F22E1B917},2019-07-23 00:00:00,Negative ID,2020-04-01,48.006763,-122.462053,ATT19_IMG_2858.jpg
{BE0AD7A4-F4FD-40F7-979C-AE5F4470B1E4},2020-04-07 00:00:00,Negative ID,2020-04-07,47.62986,-120.68945,ATT21_IMG_0190.jpg
{EF1D664F-F908-4086-95C2-6C3B1A93FCB2},2019-06-16 00:00:00,Negative ID,2020-04-07,47.766765,-122.552735,ATT22_20190616_153627.jpg
{EF1D664F-F908-4086-95C2-6C3B1A93FCB2},2019-06-16 00:00:00,Negative ID,2020-04-07,47.766765,-122.552735,ATT23_20190616_153738.jpg
{EF1D664F-F908-4086-95C2-6C3B1A93FCB2},2019-06-16 00:00:00,Negative ID,2020-04-07,47.766765,-122.552735,ATT24_20190616_151419.jpg
{EF1D664F-F908-4086-95C2-6C3B1A93FCB2},2019-06-16 00:00:00,Negative ID,2020-04-07,47.766765,-122.552735,ATT25_20190616_151402.jpg
{BEE96943-A647-46B0-85FA-6B02B961D195},2020-04-07 00:00:00,Negative ID,2020-04-07,47.708791,-117.472206,ATT27_20200407_141709.jpg
{3A1CBF2E-E6F0-4728-A6B6-F57F29BF5B40},2019-07-13 00:00:00,Negative ID,2020-04-08,47.221882,-119.99443,ATT28_B4D4242C-FE99-4077-B096-4627FDA96E2E.png
{3A1CBF2E-E6F0-4728-A6B6-F57F29BF5B40},2019-07-13 00:00:00,Negative ID,2020-04-08,47.221882,-119.99443,ATT29_84E1E6A1-FF5C-4736-80F5-571AC892E2CE.png
{3A1CBF2E-E6F0-4728-A6B6-F57F29BF5B40},2019-07-13 00:00:00,Negative ID,2020-04-08,47.221882,-119.99443,ATT30_23D4B131-C8C2-461F-8036-27DD7428DA6D.png
{3A1CBF2E-E6F0-4728-A6B6-F57F29BF5B40},2019-07-13 00:00:00,Negative ID,2020-04-08,47.221882,-119.99443,ATT31_52AF6373-24C9-45FA-95B9-B41ACB834AC2.png
{C9587D29-D898-4CE0-8508-E31EF42AD20C},2019-09-12 00:00:00,Negative ID,2020-04-08,47.328,-122.58004,ATT32_Wasp 3.jpg
{C9587D29-D898-4CE0-8508-E31EF42AD20C},2019-09-12 00:00:00,Negative ID,2020-04-08,47.328,-122.58004,ATT33_Wasp 4.jpg
{C9587D29-D898-4CE0-8508-E31EF42AD20C},2019-09-12 00:00:00,Negative ID,2020-04-08,47.328,-122.58004,ATT34_Wasp 5.jpg
{C9587D29-D898-4CE0-8508-E31EF42AD20C},2019-09-12 00:00:00,Negative ID,2020-04-08,47.328,-122.58004,ATT35_Wasp 1.jpg
{C9587D29-D898-4CE0-8508-E31EF42AD20C},2019-09-12 00:00:00,Negative ID,2020-04-08,47.328,-122.58004,ATT36_Wasp 2.jpg
{931A8E3E-9FE2-4271-A386-867C76516779},2019-01-20 00:00:00,Negative ID,2020-04-08,46.491849,-117.085127,ATT37_88C7018C-51ED-42B7-A1A7-CF7F5E7765D5.jpg
{FCE0B369-AC4D-48CF-A318-7EAD391EEE81},2019-08-08 00:00:00,Negative ID,2020-04-09,46.535196,-117.084754,ATT39_DA9A85C4-6C25-4712-95F4-058341389373.jpg
{EFB94730-2810-4BBB-A708-66AAA805E857},2020-04-09 00:00:00,Negative ID,2020-04-09,47.005477,-122.919675,ATT40_DSC03373.jpg
{4689DDB2-78D7-4219-ADB3-C2A3134A1359},2020-04-12 00:00:00,Negative ID,2020-04-12,48.14981,-123.13306,ATT41_inbound5813879761744044220.jpg
{4689DDB2-78D7-4219-ADB3-C2A3134A1359},2020-04-12 00:00:00,Negative ID,2020-04-12,48.14981,-123.13306,ATT42_inbound4333374323380049838.jpg
{43481D0E-63CC-4E98-88A1-2176F4E893A6},2020-04-11 00:00:00,Negative ID,2020-04-12,47.859496,-122.26428,ATT43_20200410_135803.jpg
{43481D0E-63CC-4E98-88A1-2176F4E893A6},2020-04-11 00:00:00,Negative ID,2020-04-12,47.859496,-122.26428,ATT44_20200410_135757.jpg
{43481D0E-63CC-4E98-88A1-2176F4E893A6},2020-04-11 00:00:00,Negative ID,2020-04-12,47.859496,-122.26428,ATT45_20200410_135753.jpg
{9700CFCE-AA79-46D4-B495-5C51ECEF3C55},2020-04-13 00:00:00,Negative ID,2020-04-13,48.74478,-122.478403,ATT46_trim.75A56855-B3BF-4B3D-8E9F-3E34CE90D8FB.MOV
{E3C77A6C-8557-4CE0-AE46-EA14D63AC2BF},2020-04-10 00:00:00,Negative ID,2020-04-13,47.665515,-122.33873,ATT47_IMG_3240.jpg
{7B407363-24DF-4E47-A515-5480DA03FB8B},2020-03-04 00:00:00,Negative ID,2020-04-13,47.634119,-122.646627,ATT48_Screenshot_20200413-140416_Photos.jpg
{D4204D03-FB96-44A8-9631-FC74AE5328AD},2020-04-14 00:00:00,Negative ID,2020-04-14,47.643943,-122.623737,ATT49_4DEB90EE-3A57-470D-AB94-57A198982319.jpg
{D4204D03-FB96-44A8-9631-FC74AE5328AD},2020-04-14 00:00:00,Negative ID,2020-04-14,47.643943,-122.623737,ATT50_FCED42BC-9C46-4109-9B35-A1A04C4FAE0F.jpg
{D4204D03-FB96-44A8-9631-FC74AE5328AD},2020-04-14 00:00:00,Negative ID,2020-04-14,47.643943,-122.623737,ATT51_64997D5E-DCC2-4A9E-A590-B3B1C0928506.jpg
{6A797976-1323-4D8E-B652-6B5422FFE2BA},2020-04-13 00:00:00,Negative ID,2020-04-14,48.588408,-122.409922,ATT52_76C75EDC-FB97-46E1-853C-D621DC980360.jpg
{81B5EB5F-4F6E-4584-A6C8-EA84567B4718},2020-04-14 00:00:00,Negative ID,2020-04-14,46.25472,-120.84395,ATT55_inbound3498365554313943637.jpg
{C4BA2CFE-55CE-4569-BFC9-89B4465252B1},2020-04-15 00:00:00,Negative ID,2020-04-15,47.573024,-122.384369,ATT56_trim.3077122A-A53F-4956-A536-8DFBEBD3CC56.MOV
{C4BA2CFE-55CE-4569-BFC9-89B4465252B1},2020-04-15 00:00:00,Negative ID,2020-04-15,47.573024,-122.384369,ATT57_36BE00B1-28D2-4657-89CF-A272D9C52496.jpg
{C4BA2CFE-55CE-4569-BFC9-89B4465252B1},2020-04-15 00:00:00,Negative ID,2020-04-15,47.573024,-122.384369,ATT58_B9178041-17D8-4352-85FA-6F44B0B00642.jpg
{48804E03-CD10-4229-82CB-CD125BFC6D37},2020-04-11 00:00:00,Negative ID,2020-04-15,48.85324,-122.601104,ATT59_8BA14EF0-C82F-4A01-8ACC-9FB31DB223BE.jpg
{3CE3A39B-778B-4CE3-BBAF-EB9ED0D48C68},2020-04-15 00:00:00,Negative ID,2020-04-15,48.823521,-122.32684,ATT61_IMG_0497.jpg
{C02A4CB0-0D3F-4E52-9D30-858F9556EABA},2020-04-15 00:00:00,Negative ID,2020-04-16,47.00083,-122.877588,ATT62_20200415_162038.jpg
{D91109DA-8C76-45D5-B360-0A78C7DF8A19},2020-04-13 00:00:00,Negative ID,2020-04-17,48.234785,-122.512932,ATT64_20200417_004746.jpg
{D91109DA-8C76-45D5-B360-0A78C7DF8A19},2020-04-13 00:00:00,Negative ID,2020-04-17,48.234785,-122.512932,ATT65_20200417_004722.jpg
{32475E51-FEA3-4B85-A229-4EB323EFAAD5},2019-08-25 00:00:00,Negative ID,2020-04-17,47.767236,-122.203342,ATT66_D73FA529-5778-4648-B17E-9BD98C944C3D.jpg
{44911F51-A718-4D56-B9BA-883022A36656},2020-04-18 00:00:00,Negative ID,2020-04-18,48.419991,-122.327865,ATT67_6B4316A4-B295-48CB-BCCE-D79973DCA0E2.jpg
{D69447EA-07C8-4505-948E-4F0E0E77FCC0},2020-04-18 00:00:00,Negative ID,2020-04-19,48.931157,-122.548199,ATT68_D49DEBC5-6514-443C-BA40-F69C4CCC19ED.jpg
{363B8679-6012-4377-997A-94E5F855FA7E},2020-04-19 00:00:00,Negative ID,2020-04-19,47.62986,-120.68945,ATT69_910754E8-0D42-4CC7-BADD-1313F02B1EEF.jpg
{DCE2AEB5-3762-48C0-9F40-3E370887DE4D},2020-04-19 00:00:00,Negative ID,2020-04-19,46.585611,-120.4542,ATT70_IMG_20200419_164057_01.jpg
{DCE2AEB5-3762-48C0-9F40-3E370887DE4D},2020-04-19 00:00:00,Negative ID,2020-04-19,46.585611,-120.4542,ATT71_IMG_20200419_164052_01.jpg
{9BAB11A6-84A4-4639-ABF4-E1ABF0D501CD},2020-04-19 00:00:00,Negative ID,2020-04-20,48.176506,-122.527462,ATT72_ACAE4735-C475-4B66-807B-AA43EA8F216B.jpg
{9BAB11A6-84A4-4639-ABF4-E1ABF0D501CD},2020-04-19 00:00:00,Negative ID,2020-04-20,48.176506,-122.527462,ATT73_85ABE82E-7E26-4469-B3A4-AABC6CB18E06.jpg
{01AA7FD6-8F00-4754-8E0F-A19DAAFBD823},2020-04-23 00:00:00,Negative ID,2020-04-23,47.607667,-122.312902,ATT76_F7532DA5-28A5-476E-A825-CFD176CA064D.jpg
{91EAC5B5-4D18-4115-8853-F4B9DD6CC8FD},2020-04-23 00:00:00,Negative ID,2020-04-23,48.08848,-123.162659,ATT77_20200423_141232.jpg
{5B740387-81A0-4580-968F-C1BFC8A48F34},2020-04-24 00:00:00,Negative ID,2020-04-24,47.172483,-122.285568,ATT78_007ACA6E-12EE-4B6A-A31C-E65E08AF4B0C.jpg
{9ED9A420-7FB1-4CA1-97D1-BF13382D8E4D},2020-04-24 00:00:00,Negative ID,2020-04-25,47.70145,-117.15638,ATT79_89599E57-3A17-4F5E-ADD3-C31813A783C6.jpg
{0D27160B-9B8C-4966-89DE-F405557650F0},2020-04-26 00:00:00,Negative ID,2020-04-26,48.83241,-122.5931,ATT81_11715C59-2F33-440D-8D75-AF7CE62E03CA.jpg
{1DEF08E5-9842-4CB4-89BF-718AEDD39319},2020-04-26 00:00:00,Negative ID,2020-04-26,47.024366,-122.811665,ATT82_13BAFADD-5CC2-42A1-A9D8-2DCA9CF8CDEA.jpg
{D1A5F20D-AE7B-413E-88E0-E26333EF95AA},2020-05-01 00:00:00,Negative ID,2020-05-01,46.632813,-122.971509,ATT83_FAF93260-1B6D-4D91-95E5-0DE8FF3DC353.jpg
{37F7CCE0-29CA-43DE-97E4-EAC47D56DC44},2020-05-01 00:00:00,Negative ID,2020-05-01,47.014372,-122.814362,ATT84_20200501_150410.jpg
{37F7CCE0-29CA-43DE-97E4-EAC47D56DC44},2020-05-01 00:00:00,Negative ID,2020-05-01,47.014372,-122.814362,ATT85_20200501_150356.jpg
{ECB890B2-6230-437F-AC3D-D1E018AF344B},2020-05-02 00:00:00,Negative ID,2020-05-02,47.010366,-122.857981,ATT87_5554F11C-77ED-4510-9E84-4959307C8B20.jpg
{65DF2118-DC2B-49EA-AE9D-9476612C0FB7},2019-07-24 00:00:00,Negative ID,2020-05-02,47.373462,-120.141581,ATT88_B4E7BEF6-9F35-458C-B16F-FEB631998C5A.jpg
{65DF2118-DC2B-49EA-AE9D-9476612C0FB7},2019-07-24 00:00:00,Negative ID,2020-05-02,47.373462,-120.141581,ATT89_1D26646D-8CA4-4DA3-AF21-52DC23AFDBF5.jpg
{3982DA63-03A8-45F4-BDB7-E95D3118430B},2020-04-25 00:00:00,Negative ID,2020-05-02,48.584053,-122.232279,ATT90_A46D3E0F-6F60-445C-8099-8017AF99F2DC.jpg
{3982DA63-03A8-45F4-BDB7-E95D3118430B},2020-04-25 00:00:00,Negative ID,2020-05-02,48.584053,-122.232279,ATT91_A403C42F-81FE-4DBD-816C-E2630EEBEC2B.jpg
{7BF598E1-D0A7-4485-BC7F-9800EB56E033},2019-08-11 00:00:00,Negative ID,2020-05-03,47.763623,-122.541143,ATT92_20190616_151419.jpg
{7BF598E1-D0A7-4485-BC7F-9800EB56E033},2019-08-11 00:00:00,Negative ID,2020-05-03,47.763623,-122.541143,ATT93_20190616_153627.jpg
{7BF598E1-D0A7-4485-BC7F-9800EB56E033},2019-08-11 00:00:00,Negative ID,2020-05-03,47.763623,-122.541143,ATT94_20190616_153738.jpg
{0D232BA7-97A5-4810-A7A6-A4F70BC16809},2019-05-20 00:00:00,Negative ID,2020-05-03,47.59787,-122.62958,ATT95_06700F96-2C5B-4A70-BDEF-EF84AE05DD76.jpg
{C9E949D5-5330-4A8E-B4D4-18998D0346C9},2019-07-10 00:00:00,Negative ID,2020-05-03,46.579221,-119.005588,ATT101_Hornet 1.jpg
{C9E949D5-5330-4A8E-B4D4-18998D0346C9},2019-07-10 00:00:00,Negative ID,2020-05-03,46.579221,-119.005588,ATT102_Hornet 2.jpg
{C9E949D5-5330-4A8E-B4D4-18998D0346C9},2019-07-10 00:00:00,Negative ID,2020-05-03,46.579221,-119.005588,ATT103_Hornet 4.jpg
{C9E949D5-5330-4A8E-B4D4-18998D0346C9},2019-07-10 00:00:00,Negative ID,2020-05-03,46.579221,-119.005588,ATT104_Hornet 6.jpg
{8BAD0097-3A7A-4CBF-B071-D483CEDD33D8},2019-08-19 00:00:00,Negative ID,2020-05-03,47.756278,-122.216833,ATT105_2019-08-18 17.39.29.jpg
{8BAD0097-3A7A-4CBF-B071-D483CEDD33D8},2019-08-19 00:00:00,Negative ID,2020-05-03,47.756278,-122.216833,ATT106_2019-08-18 17.39.34.jpg
{8BAD0097-3A7A-4CBF-B071-D483CEDD33D8},2019-08-19 00:00:00,Negative ID,2020-05-03,47.756278,-122.216833,ATT107_2019-08-18 18.19.20.jpg
{8BAD0097-3A7A-4CBF-B071-D483CEDD33D8},2019-08-19 00:00:00,Negative ID,2020-05-03,47.756278,-122.216833,ATT108_2019-08-18 18.19.22.jpg
{8BAD0097-3A7A-4CBF-B071-D483CEDD33D8},2019-08-19 00:00:00,Negative ID,2020-05-03,47.756278,-122.216833,ATT109_2019-08-18 18.19.30.jpg
{8BAD0097-3A7A-4CBF-B071-D483CEDD33D8},2019-08-19 00:00:00,Negative ID,2020-05-03,47.756278,-122.216833,ATT110_2019-08-18 18.19.46.jpg
{8BAD0097-3A7A-4CBF-B071-D483CEDD33D8},2019-08-19 00:00:00,Negative ID,2020-05-03,47.756278,-122.216833,ATT111_2019-08-18 18.19.49.jpg
{501AF29E-0ED2-42A0-92FE-955FF7176A55},2020-05-03 00:00:00,Negative ID,2020-05-03,47.67176,-122.30735,ATT112_3D8809E5-D8D3-40D1-A8A9-B5C48A08BF46.jpg
{27256930-CEDE-4321-8C26-16ED0744E6C1},2019-08-25 00:00:00,Negative ID,2020-05-03,46.212198,-119.293372,ATT113_8423E25F-54E8-4148-9E6F-6444C16F71C3.jpg
{CA722DB4-2D93-4CD0-A319-A42E784CC3C0},2020-04-17 00:00:00,Negative ID,2020-05-03,47.781506,-122.686947,ATT114_4C7F51E5-62D1-435A-A52C-39BD7FC74B13.jpg
{7F602342-F6C3-4F09-853F-0B5D5376BD51},2020-05-03 00:00:00,Negative ID,2020-05-03,47.479726,-122.30849,ATT115_7FE1C6E2-5BB2-4C44-ABC3-DC4548909B3A.jpg
{E34CEBC2-EC54-4D75-8B7E-489D54B3BFD8},2020-04-26 00:00:00,Negative ID,2020-05-03,45.63221,-122.67156,ATT116_20200426_161253.jpg
{E34CEBC2-EC54-4D75-8B7E-489D54B3BFD8},2020-04-26 00:00:00,Negative ID,2020-05-03,45.63221,-122.67156,ATT117_20200426_161305.jpg
{C0B9DDF7-4394-4170-8056-E072CFE7986A},2019-07-28 00:00:00,Negative ID,2020-05-03,47.315424,-119.545603,ATT118_FDD7FD66-B528-45E4-A64B-08FF1725BA23.jpg
{C0B9DDF7-4394-4170-8056-E072CFE7986A},2019-07-28 00:00:00,Negative ID,2020-05-03,47.315424,-119.545603,ATT119_DEEA4F59-A126-47D4-A3C8-A9EEA112422A.jpg
{917739A8-89D2-47CB-9642-3F0EAB046F32},2020-05-03 00:00:00,Negative ID,2020-05-03,47.076417,-122.312839,ATT120_inbound5999811371460888354.jpg
{BC1D2E58-9B7C-4CBE-BD61-B987E4C6F882},2020-05-03 00:00:00,Negative ID,2020-05-03,46.73241,-117.15917,ATT121_Close Up.jpg
{BC1D2E58-9B7C-4CBE-BD61-B987E4C6F882},2020-05-03 00:00:00,Negative ID,2020-05-03,46.73241,-117.15917,ATT122_Close Up 2.jpg
{BC1D2E58-9B7C-4CBE-BD61-B987E4C6F882},2020-05-03 00:00:00,Negative ID,2020-05-03,46.73241,-117.15917,ATT123_Medium Shot.jpg
{BC1D2E58-9B7C-4CBE-BD61-B987E4C6F882},2020-05-03 00:00:00,Negative ID,2020-05-03,46.73241,-117.15917,ATT124_Wide Shot.jpg
{E037BAA7-EBE8-4789-83DA-E1415236D544},2020-05-04 00:00:00,Negative ID,2020-05-04,47.635912,-122.702612,ATT128_LARGE HORNET -- ASIAN.jpg
{E037BAA7-EBE8-4789-83DA-E1415236D544},2020-05-04 00:00:00,Negative ID,2020-05-04,47.635912,-122.702612,ATT129_HORNET IN JAR.jpg
{0972B5CA-6F24-4E24-B5CD-FAFEFBFC4839},2020-05-04 00:00:00,Negative ID,2020-05-04,48.112992,-122.060976,ATT130_IMG_20200503_193640_177.jpg
{594772B5-C384-4EEA-B44A-FC1E00D98A3E},2019-07-11 00:00:00,Negative ID,2020-05-04,46.417813,-117.033198,ATT132_20190711_153146.jpg
{3488FC7A-3008-4961-87E5-4740124987B3},2020-05-01 00:00:00,Negative ID,2020-05-04,47.798705,-122.288636,ATT133_IMG_20200503_171925.jpg
{DA3FE479-C0B9-40AB-8358-790CEEB4AF88},2019-08-01 00:00:00,Negative ID,2020-05-04,45.586842,-122.300349,ATT134_C5573D43-7AE7-41C8-A321-CC449484806B.png
{DA3FE479-C0B9-40AB-8358-790CEEB4AF88},2019-08-01 00:00:00,Negative ID,2020-05-04,45.586842,-122.300349,ATT135_36B1FE71-758F-4FC6-BF55-44B00233B5EB.png
{DA3FE479-C0B9-40AB-8358-790CEEB4AF88},2019-08-01 00:00:00,Negative ID,2020-05-04,45.586842,-122.300349,ATT136_90CDFD8E-DC18-4DA3-A3C4-7F523755CDFD.jpg
{92E31DB0-053B-4E16-B782-864287389C1F},2020-05-04 00:00:00,Negative ID,2020-05-04,47.598319,-122.318173,ATT137_IMG_1120.jpg
{92E31DB0-053B-4E16-B782-864287389C1F},2020-05-04 00:00:00,Negative ID,2020-05-04,47.598319,-122.318173,ATT138_IMG_1121.jpg
{23DD2DDB-DAE3-4163-8BAD-4BA91CA0BFE0},2020-05-04 00:00:00,Negative ID,2020-05-04,47.662247,-117.287249,ATT139_61025789938--7085419E-E5C8-49F2-8F06-4C53356E51FE.jpg
{839AB8A0-B647-4FD1-80FA-91FF73DB0119},2019-05-09 00:00:00,Negative ID,2020-05-04,47.203856,-124.200461,ATT140_64A89079-F3AA-43A8-921F-006DA2D3D4C8.jpg
{5886B650-5ED3-4BF3-A1C2-E1438CC99ADE},2020-05-02 00:00:00,Negative ID,2020-05-04,45.65161,-121.954251,ATT141_A9E3E3DB-F38D-4B1E-AC08-BE55795B030D.jpg
{5886B650-5ED3-4BF3-A1C2-E1438CC99ADE},2020-05-02 00:00:00,Negative ID,2020-05-04,45.65161,-121.954251,ATT142_6F3F672B-B70D-4E55-8700-CA902D67CDBC.jpg
{2C0470B7-BF48-4EF5-AF7F-6D3975C62A7B},2020-05-04 00:00:00,Negative ID,2020-05-04,45.671347,-122.595696,ATT143_9FCD89FD-4A7B-4BB3-B5A1-96A407C50F1F.jpg
{B885FD0C-1A1A-419B-A20B-DDD5DFF41569},2020-04-06 00:00:00,Negative ID,2020-05-04,48.278765,-122.647282,ATT144_9AF33686-8F13-4B10-A9B4-04064B48F131.jpg
{92D17D4D-3251-410E-B1B0-5AA9BECA9678},2020-05-10 00:00:00,Negative ID,2020-05-12,47.268189,-122.471635,ATT149_C513FE08-9729-49DB-85BC-4684F823F5B8.jpg
{92D17D4D-3251-410E-B1B0-5AA9BECA9678},2020-05-10 00:00:00,Negative ID,2020-05-12,47.268189,-122.471635,ATT150_C69EA67F-1C87-4DFB-A0FD-E2B6F2AAA2B7.jpg
{A250A974-215C-482C-9632-1B3ACCF750F1},2020-05-12 00:00:00,Negative ID,2020-05-12,48.040075,-122.42349,ATT151_972FEC9D-7B18-4818-A507-4915A33B64E2.jpg
{F8DEFC50-89AA-4262-B7CA-40596FBE3FE3},2020-05-12 00:00:00,Negative ID,2020-05-12,48.260485,-117.749912,ATT152_20200512_153634.jpg
{77E72D82-CB2A-4D25-87E6-9656479B229E},2020-05-12 00:00:00,Negative ID,2020-05-12,47.00379,-123.40382,ATT153_0512201623.jpg
{2CE88ACB-6B4B-4357-91F1-813D079B5057},2020-05-13 00:00:00,Negative ID,2020-05-13,47.918493,-122.099645,ATT154_20200512_180734.jpg
{2CE88ACB-6B4B-4357-91F1-813D079B5057},2020-05-13 00:00:00,Negative ID,2020-05-13,47.918493,-122.099645,ATT155_20200512_180729.jpg
{2CE88ACB-6B4B-4357-91F1-813D079B5057},2020-05-13 00:00:00,Negative ID,2020-05-13,47.918493,-122.099645,ATT156_20200512_180739.jpg
{2CE88ACB-6B4B-4357-91F1-813D079B5057},2020-05-13 00:00:00,Negative ID,2020-05-13,47.918493,-122.099645,ATT157_20200512_180744.jpg
{85411F65-B0D8-4D89-B654-684B14F3DE1F},2019-06-25 00:00:00,Negative ID,2020-05-13,47.84329,-120.02318,ATT158_4FB7D322-490A-4B49-A3C6-63CC70868997.jpg
{79593AD4-D8F9-42AD-A56C-C8006EE5C083},2020-05-13 00:00:00,Negative ID,2020-05-13,47.617465,-122.333842,ATT159_06F0BC16-695A-4B24-8D30-5DAD604392D0.jpg
{79593AD4-D8F9-42AD-A56C-C8006EE5C083},2020-05-13 00:00:00,Negative ID,2020-05-13,47.617465,-122.333842,ATT160_81C55E20-8EB8-4E06-BC2F-37B514E9BE8C.jpg
{79593AD4-D8F9-42AD-A56C-C8006EE5C083},2020-05-13 00:00:00,Negative ID,2020-05-13,47.617465,-122.333842,ATT161_21D0949C-FA8E-40CB-B6FF-AC853E39086E.jpg
{27D48621-8C7D-4F96-8C16-EFA764D765E0},2020-05-13 00:00:00,Negative ID,2020-05-13,47.59173,-117.41351,ATT162_IMG_2882.jpg
{361ED665-26DC-4E76-9C4D-F27E37156B20},2020-05-13 00:00:00,Negative ID,2020-05-13,47.470068,-121.747172,ATT163_1533CA16-96F3-44E0-B4BA-4EFE4A21F0D4.jpg
{361ED665-26DC-4E76-9C4D-F27E37156B20},2020-05-13 00:00:00,Negative ID,2020-05-13,47.470068,-121.747172,ATT164_image.jpg
{361ED665-26DC-4E76-9C4D-F27E37156B20},2020-05-13 00:00:00,Negative ID,2020-05-13,47.470068,-121.747172,ATT165_image.jpg
{8B82354E-FA2F-40D9-A1AA-087FF730F9D6},2020-05-14 00:00:00,Negative ID,2020-05-14,48.75235,-122.47122,ATT166_BAB8AF68-4B9A-4A1B-B077-EBAC07B29070.jpg
{85EFF589-E50D-49E7-A272-6864425FED7D},2020-05-14 00:00:00,Negative ID,2020-05-14,47.451139,-122.267277,ATT167_714AC973-EAA0-462B-937F-006808560806.jpg
{D3A8553C-5770-4D61-B320-F399D9FD502D},2020-05-14 00:00:00,Negative ID,2020-05-14,48.137842,-122.792983,ATT168_419289CD-1719-4A34-99D1-E5D0DEE0C00B.jpg
{BD522791-708B-4E9B-9225-64016C6A42D5},2020-05-14 00:00:00,Negative ID,2020-05-14,47.2022,-122.24,ATT169_6749197B-7C86-40ED-A81C-80664550E947.jpg
{BD522791-708B-4E9B-9225-64016C6A42D5},2020-05-14 00:00:00,Negative ID,2020-05-14,47.2022,-122.24,ATT170_2943F75A-E6B6-4B01-BDED-C5D94C98976B.jpg
{37CABA69-C18F-49F8-B635-30527B27DF75},2020-05-14 00:00:00,Negative ID,2020-05-14,48.237543,-122.156276,ATT171_IMG_0462.jpg
{C9DBB526-48A0-4587-BEDA-1ED6E8986491},2020-05-15 00:00:00,Negative ID,2020-05-15,46.99703,-120.54872,ATT172_DE160F7F-0CCE-497F-A94C-E37545842165.jpg
{DBD031C3-15DE-4754-8687-DDEEF5BEDB00},2020-05-10 00:00:00,Negative ID,2020-05-15,46.053309,-122.042238,ATT173_63A90F82-F9F9-409C-9FB1-97A41C12BB4D.jpg
{333A00AF-45DA-471D-949B-1B2E890F1629},2020-05-16 00:00:00,Negative ID,2020-05-16,47.180628,-122.328275,ATT176_image.jpg
{9EF77696-3393-4CA4-AF70-0C68223081C4},2020-05-16 00:00:00,Negative ID,2020-05-16,47.649989,-122.217316,ATT177_6085BC1D-4A12-494A-BF96-01942DE76F2E.jpg
{9EF77696-3393-4CA4-AF70-0C68223081C4},2020-05-16 00:00:00,Negative ID,2020-05-16,47.649989,-122.217316,ATT178_01C8C9AB-4B4D-41FF-8847-73EC355BBDF1.jpg
{5A2A75DC-F234-4EC7-BD0C-05B04C8FF612},2020-05-15 00:00:00,Negative ID,2020-05-16,45.499195,-122.491135,ATT179_F428D5AF-1893-4563-92E2-B9E15424168C.jpg
{F7903CA6-8E9A-4888-9315-B17F6BB51430},2020-05-16 00:00:00,Negative ID,2020-05-16,47.600383,-120.639522,ATT180_hornet.mp4
{1DD6C6A8-67B9-45FF-87CE-54D90DA080C0},2020-05-16 00:00:00,Negative ID,2020-05-16,47.66119,-122.077048,ATT181_5478CB24-DDB2-4840-8DBA-606DB0B4F128.jpg
{1DD6C6A8-67B9-45FF-87CE-54D90DA080C0},2020-05-16 00:00:00,Negative ID,2020-05-16,47.66119,-122.077048,ATT182_E22C7B13-8FAB-48B1-9C39-D01F74097A60.jpg
{1DD6C6A8-67B9-45FF-87CE-54D90DA080C0},2020-05-16 00:00:00,Negative ID,2020-05-16,47.66119,-122.077048,ATT183_0F1DDBC0-344B-4BFB-B8A1-361DC2CA345F.jpg
{1DD6C6A8-67B9-45FF-87CE-54D90DA080C0},2020-05-16 00:00:00,Negative ID,2020-05-16,47.66119,-122.077048,ATT184_73DDAD16-7853-4A05-AC5B-1B64D8977DF9.jpg
{6E333D31-44AC-4967-81EB-296DEBD792AF},2020-05-16 00:00:00,Negative ID,2020-05-16,47.435031,-122.201472,ATT185_3FF5F030-F6FA-4F4E-AFE9-E90A979C9C7B.jpg
{DB7E2ADA-0840-4950-AA51-41CE12A06073},2020-05-16 00:00:00,Negative ID,2020-05-16,47.566393,-122.161371,ATT186_hornet 2.jpg
{DB7E2ADA-0840-4950-AA51-41CE12A06073},2020-05-16 00:00:00,Negative ID,2020-05-16,47.566393,-122.161371,ATT187_hornet 1.jpg
{0CC58B63-70DC-4D7E-9E01-8945BBEE9EFC},2020-05-15 00:00:00,Negative ID,2020-05-16,47.483758,-120.341365,ATT188_BB82C8C4-5957-4CD7-9F96-61125B3EFEBE.jpg
{9DC500C8-BEB8-47C5-80F8-A8BC8B9AFFB1},2020-05-17 00:00:00,Negative ID,2020-05-17,47.583325,-122.30953,ATT189_IMG_20200517_103043.jpg
{580BC9A7-7D8D-43C0-BDE4-A3B19A72BF34},2020-05-17 00:00:00,Negative ID,2020-05-17,47.385752,-122.040744,ATT190_598C00F0-5553-4B83-B413-2028750011CD.jpg
{7F558149-3C08-41B0-8E9E-0D8F91FF7DA9},2020-05-17 00:00:00,Negative ID,2020-05-17,47.81082,-117.595544,ATT191_28076DC5-D0F4-4691-9103-A318B627273F.jpg
{46F2DF93-D93C-40F1-8D70-076D1541833A},2020-05-17 00:00:00,Negative ID,2020-05-17,47.23676,-122.865346,ATT192_20200517_142140.jpg
{46F2DF93-D93C-40F1-8D70-076D1541833A},2020-05-17 00:00:00,Negative ID,2020-05-17,47.23676,-122.865346,ATT193_20200517_142215.jpg
{C25A4B28-9A86-42B8-B756-D52AC7447CE8},2020-05-18 00:00:00,Negative ID,2020-05-18,47.703717,-122.360349,ATT194_IMG-20200517-WA0001.jpg
{320D9A71-5C04-4727-8A7F-46C41589A31F},2020-05-18 00:00:00,Negative ID,2020-05-18,47.702572,-122.062616,ATT195_20200517_164235.jpg
{AF57C655-CE29-410E-BC07-4BA8FE38968B},2020-05-18 00:00:00,Negative ID,2020-05-18,47.175633,-122.239197,ATT196_89EE16E4-D75E-45BA-B6A4-FA94087D8AA3.jpg
{AF57C655-CE29-410E-BC07-4BA8FE38968B},2020-05-18 00:00:00,Negative ID,2020-05-18,47.175633,-122.239197,ATT197_E7054CC3-116B-4FAE-8757-1171FE35348A.jpg
{DF77D908-28A9-45FA-8CCF-F2B70CA13ACA},2020-05-18 00:00:00,Negative ID,2020-05-18,47.061606,-122.39733,ATT198_3817387A-9460-4284-88CA-20502DBBC7EC.jpg
{74F8B27E-3F95-43C0-883A-F5E0E0E465EA},2020-05-18 00:00:00,Negative ID,2020-05-18,47.384923,-122.045088,ATT199_IMG_2700.mov
{72644655-4CED-47F3-8650-769E8E7ABAFB},2020-05-18 00:00:00,Negative ID,2020-05-18,48.767498,-122.488037,ATT200_Murder hornet 1.jpg
{72644655-4CED-47F3-8650-769E8E7ABAFB},2020-05-18 00:00:00,Negative ID,2020-05-18,48.767498,-122.488037,ATT201_Murder hornet 2.jpg
{F0642335-3D11-4537-9A87-BD1A7EAE7C7E},2020-05-15 00:00:00,Negative ID,2020-05-18,48.037585,-123.04359,ATT202_honey bee1.jpg
{F0642335-3D11-4537-9A87-BD1A7EAE7C7E},2020-05-15 00:00:00,Negative ID,2020-05-18,48.037585,-123.04359,ATT203_honey bee2.jpg
{C89B4D6D-B885-4ED6-894A-365613131EFC},2020-05-19 00:00:00,Negative ID,2020-05-19,47.956833,-122.212831,ATT204_A85942F5-92FE-4A08-8434-648B85987A22.jpg
{9D87F6E9-922C-4DCC-9E5E-10AA7D9BE1ED},2020-05-19 00:00:00,Negative ID,2020-05-19,47.63646,-122.372714,ATT205_IMG_1947.jpg
{9D87F6E9-922C-4DCC-9E5E-10AA7D9BE1ED},2020-05-19 00:00:00,Negative ID,2020-05-19,47.63646,-122.372714,ATT206_IMG_1949.jpg
{9D87F6E9-922C-4DCC-9E5E-10AA7D9BE1ED},2020-05-19 00:00:00,Negative ID,2020-05-19,47.63646,-122.372714,ATT207_IMG_1950-1.jpg
{0208D9EC-9652-4DFB-9313-8C25A534BB3B},2020-05-19 00:00:00,Negative ID,2020-05-19,47.461451,-120.309291,ATT208_8082C7FA-16BE-4207-92CF-EBB10F1B6E0C.jpg
{0208D9EC-9652-4DFB-9313-8C25A534BB3B},2020-05-19 00:00:00,Negative ID,2020-05-19,47.461451,-120.309291,ATT209_04E429B7-CB1E-49C1-A375-55E2B7332361.jpg
{0208D9EC-9652-4DFB-9313-8C25A534BB3B},2020-05-19 00:00:00,Negative ID,2020-05-19,47.461451,-120.309291,ATT210_3B7EAFF1-DF1D-4406-B419-881E442967D0.jpg
{0208D9EC-9652-4DFB-9313-8C25A534BB3B},2020-05-19 00:00:00,Negative ID,2020-05-19,47.461451,-120.309291,ATT211_3B653326-73D2-4921-82BB-58125D221DEA.jpg
{EBE1A357-9859-4402-A0C5-18A1B42DF0BD},2020-05-19 00:00:00,Negative ID,2020-05-19,48.758247,-122.467509,ATT212_B0EC763A-9C4C-48B0-9C95-30BABB818300.jpg
{B823066B-82C1-4C49-BC4E-4CF626DD5A7E},2020-05-19 00:00:00,Negative ID,2020-05-19,47.62984,-120.68945,ATT213_81599CD4-525A-41AC-BB27-DD6974C0968F.png
{5EA48A41-49D1-49CE-8608-565258D71F96},2020-05-19 00:00:00,Negative ID,2020-05-19,46.232395,-119.0982,ATT214_E79754E8-7CE9-470C-AEDC-9D5A45AE4FFD.jpg
{2BB2424F-4C49-445C-BB58-B9C21EA77B00},2020-05-20 00:00:00,Negative ID,2020-05-20,47.69733,-122.17461,ATT215_image.jpg
{2BB2424F-4C49-445C-BB58-B9C21EA77B00},2020-05-20 00:00:00,Negative ID,2020-05-20,47.69733,-122.17461,ATT216_image.jpg
{2BB2424F-4C49-445C-BB58-B9C21EA77B00},2020-05-20 00:00:00,Negative ID,2020-05-20,47.69733,-122.17461,ATT217_image.jpg
{2BB2424F-4C49-445C-BB58-B9C21EA77B00},2020-05-20 00:00:00,Negative ID,2020-05-20,47.69733,-122.17461,ATT218_image.jpg
{82ECA218-CD3B-4E45-A587-84162C61A7E9},2020-05-19 00:00:00,Negative ID,2020-05-20,47.057817,-122.403006,ATT219_BAF6E135-F8D7-4C70-B87A-16813BE37CAC.png
{D31D948B-CD47-44D3-875F-B02EDDE0F5A5},2020-05-18 00:00:00,Negative ID,2020-05-21,46.85289,-121.76037,ATT220_20200516_131647.jpg
{DBB3CD22-F603-4E7B-BA51-053FCE6459D8},2020-05-11 00:00:00,Negative ID,2020-05-21,46.52948,-122.48446,ATT221_310E2A2C-7C33-499B-B45D-74E45ED77040.jpg
{DBB3CD22-F603-4E7B-BA51-053FCE6459D8},2020-05-11 00:00:00,Negative ID,2020-05-21,46.52948,-122.48446,ATT222_A1889C4F-3168-41C6-8357-AEF9254E4D9A.jpg
{68D64F48-5C75-4C16-B83D-13A9CA96C2A2},2020-05-11 00:00:00,Negative ID,2020-05-21,46.486978,-122.508845,ATT223_inbound7003344118638298110.jpg
{06A93A8D-9865-4855-8D92-044BF60A85A8},2020-05-20 00:00:00,Negative ID,2020-05-21,47.3074,-122.23041,ATT224_IMG_0795.mov
{50990AC9-8FB6-499E-8E27-89629CF07A65},2020-05-22 00:00:00,Negative ID,2020-05-23,48.95716,-122.442328,ATT225_9CDEEB21-4047-40C6-9028-2892489706E7.jpg
{03A00CD2-54CC-4013-8D29-BD54E16CC891},2020-05-23 00:00:00,Negative ID,2020-05-23,47.666575,-122.282676,ATT226_20200523_130131.jpg
{03A00CD2-54CC-4013-8D29-BD54E16CC891},2020-05-23 00:00:00,Negative ID,2020-05-23,47.666575,-122.282676,ATT227_20200523_130127.jpg
{03A00CD2-54CC-4013-8D29-BD54E16CC891},2020-05-23 00:00:00,Negative ID,2020-05-23,47.666575,-122.282676,ATT228_20200523_130103.jpg
{292D9856-0879-438D-8D85-FA0A01E87EB8},2020-05-23 00:00:00,Negative ID,2020-05-23,47.897217,-122.526842,ATT229_C42DEE66-DBBE-43CD-BCB5-5A96FAA1546E.jpg
{05C71645-C894-45CE-ACE0-E0466E164568},2020-04-25 00:00:00,Negative ID,2020-05-24,47.480287,-122.162668,ATT230_20200424_140423.jpg
{17BB6545-E86B-4955-BB82-F1E148247B5B},2020-05-24 00:00:00,Negative ID,2020-05-24,47.982586,-122.101218,ATT231_8685EB49-543E-4222-9F0A-B4E1BCB0AE2F.jpg
{403C9258-0BC5-475B-A0C1-0E72BC219BB0},2020-05-24 00:00:00,Negative ID,2020-05-24,48.84756,-122.59351,ATT232_95A4676E-DAD1-447A-AFE1-26C1BBEC7456.jpg
{223A9C91-C350-496A-AD91-CA1D97AFEFC9},2020-05-24 00:00:00,Negative ID,2020-05-24,48.875307,-122.579355,ATT233_D6797F8B-D45D-4BFF-95C1-17BBBF6247A9.png
{A1783B0C-E764-4CB8-AA38-A110532F32B1},2020-05-24 00:00:00,Negative ID,2020-05-24,48.126189,-122.281148,ATT234_IMG_20200524_161105.jpg
{A1783B0C-E764-4CB8-AA38-A110532F32B1},2020-05-24 00:00:00,Negative ID,2020-05-24,48.126189,-122.281148,ATT235_IMG_20200524_161102.jpg
{B5B7C730-96C7-4230-99E8-51706BF29342},2020-05-24 00:00:00,Negative ID,2020-05-25,47.19044,-122.29564,ATT236_1D90EF3A-FC22-4F9C-AAD5-DBA659E93391.jpg
{8A796699-841D-40E5-B900-32E59E39D1A0},2020-05-07 00:00:00,Negative ID,2020-05-25,47.521385,-121.843014,ATT237_IMG_0273.jpg
{8A796699-841D-40E5-B900-32E59E39D1A0},2020-05-07 00:00:00,Negative ID,2020-05-25,47.521385,-121.843014,ATT238_IMG_0276.jpg
{8A796699-841D-40E5-B900-32E59E39D1A0},2020-05-07 00:00:00,Negative ID,2020-05-25,47.521385,-121.843014,ATT239_IMG_0269.jpg
{8C83050E-BEED-422E-9ABA-E8C95D5594E2},2020-05-25 00:00:00,Negative ID,2020-05-25,47.83283,-122.26675,ATT240_33139D90-3C45-4A82-9BCE-A765E8B7074A.jpg
{8C83050E-BEED-422E-9ABA-E8C95D5594E2},2020-05-25 00:00:00,Negative ID,2020-05-25,47.83283,-122.26675,ATT241_7797E9DB-DFBF-4971-96DB-32523CB48C30.jpg
{4BAC6129-9804-46FD-98A2-364D398CAD1D},2020-05-25 00:00:00,Negative ID,2020-05-25,46.323187,-124.007664,ATT242_100634152_10224289741617714_3868643941641355264_n.jpg
{99D34127-586A-4F6A-9BD9-4170A70882FB},2020-05-24 00:00:00,Negative ID,2020-05-25,48.699536,-122.481805,ATT243_20200524_165500.jpg
{99D34127-586A-4F6A-9BD9-4170A70882FB},2020-05-24 00:00:00,Negative ID,2020-05-25,48.699536,-122.481805,ATT244_20200524_165453.jpg
{7007C1F1-C7C8-48DF-8438-3065BCE98FAF},2020-05-25 00:00:00,Negative ID,2020-05-25,46.550968,-123.590329,ATT245_20200525_103350.jpg
{7007C1F1-C7C8-48DF-8438-3065BCE98FAF},2020-05-25 00:00:00,Negative ID,2020-05-25,46.550968,-123.590329,ATT246_20200525_103357.jpg
{3F55105F-8A68-4CA0-A24C-C1DD5645768B},2020-05-24 00:00:00,Negative ID,2020-05-25,47.859524,-122.127766,ATT247_E671806B-E97A-48B5-95E6-D8D484D47FCD.jpg
{2214AB8F-7BC6-4DF7-A58A-C325991EDC5F},2020-05-25 00:00:00,Negative ID,2020-05-26,46.550579,-123.590433,ATT248_IMG_2901.jpg
{2214AB8F-7BC6-4DF7-A58A-C325991EDC5F},2020-05-25 00:00:00,Negative ID,2020-05-26,46.550579,-123.590433,ATT249_IMG_2902.jpg
{293AE081-3B5B-41A3-9A34-3C380D8348B4},2020-05-26 00:00:00,Negative ID,2020-05-26,48.872793,-122.316346,ATT250_20200526_145556.jpg
{63C0D27F-1BA6-462F-8C96-EC2A7EDD1802},2020-05-23 00:00:00,Negative ID,2020-05-27,47.733894,-122.361732,ATT251_Hornet_ 05_26_2020-1.png
{63C0D27F-1BA6-462F-8C96-EC2A7EDD1802},2020-05-23 00:00:00,Negative ID,2020-05-27,47.733894,-122.361732,ATT252_Hornet_ 05_26_2020-2.png
{63C0D27F-1BA6-462F-8C96-EC2A7EDD1802},2020-05-23 00:00:00,Negative ID,2020-05-27,47.733894,-122.361732,ATT253_Hornet_ 05_26_2020-3.png
{41CC07E8-13EC-4553-8A86-E8B7F0BC221B},2020-05-27 00:00:00,Negative ID,2020-05-27,47.62984,-120.68945,ATT254_EA86A8C9-4B89-471E-B6AD-D6FB9F45C8EA.jpg
{96776C02-217D-4013-9312-FF9092B9030D},2020-05-24 00:00:00,Negative ID,2020-05-27,48.6601,-123.396942,ATT255_ASIAN GIANT HORNET_ 2020 0524 2.26 pm (Combined Clip).mov
{AD56E8D0-CC43-45B5-B042-94D1712322B9},2020-05-27 00:00:00,Positive ID,2020-05-27,48.955587,-122.661037,ATT256_47C3AA1B-C9D4-46FA-9D30-39655ACE1604.jpg
{F28C6FFA-65E2-4E06-8027-97FBE9F4AA87},2020-05-26 00:00:00,Negative ID,2020-05-28,47.718381,-122.244582,ATT257_A77CFD91-77EE-4D8F-8D32-C83350BE30B1.jpg
{19EF9EEE-E287-4FB5-A318-944DAF38F00A},2020-05-27 00:00:00,Negative ID,2020-05-28,47.768386,-122.533587,ATT258_29742E51-22D1-47A7-889F-3255350376CA.jpg
{19EF9EEE-E287-4FB5-A318-944DAF38F00A},2020-05-27 00:00:00,Negative ID,2020-05-28,47.768386,-122.533587,ATT259_222BB2C1-9DEC-48C6-964E-5A75D7DF2EBC.jpg
{19EF9EEE-E287-4FB5-A318-944DAF38F00A},2020-05-27 00:00:00,Negative ID,2020-05-28,47.768386,-122.533587,ATT260_trim.9CD5B8C5-CBCC-4EAE-AB2D-3E2D2C169F7B.MOV
{011FF7E9-147D-4FCA-A3B0-2340BE6A35B0},2020-03-02 00:00:00,Negative ID,2020-05-28,48.550103,-119.741725,ATT261_unknownwasp3.jpg
{B6C75705-6AA7-4810-81CD-6FDE255295A0},2020-05-28 00:00:00,Negative ID,2020-05-28,47.63835,-117.214026,ATT262_20200528_100625.jpg
{10F2EA41-E4BD-4BF9-B927-424006225800},2020-05-28 00:00:00,Negative ID,2020-05-28,47.783707,-122.49238,ATT263_IMG-3187.jpg
{10F2EA41-E4BD-4BF9-B927-424006225800},2020-05-28 00:00:00,Negative ID,2020-05-28,47.783707,-122.49238,ATT264_IMG-3188.jpg
{469E3BDD-15EE-4C87-9590-6E0420FD9CE4},2020-05-28 00:00:00,Negative ID,2020-05-28,47.6028,-122.3292,ATT265_Dead murder hornet.jpg
{469E3BDD-15EE-4C87-9590-6E0420FD9CE4},2020-05-28 00:00:00,Negative ID,2020-05-28,47.6028,-122.3292,ATT266_Murder hornet 1.jpg
{469E3BDD-15EE-4C87-9590-6E0420FD9CE4},2020-05-28 00:00:00,Negative ID,2020-05-28,47.6028,-122.3292,ATT267_Murder hornet 2.jpg
{469E3BDD-15EE-4C87-9590-6E0420FD9CE4},2020-05-28 00:00:00,Negative ID,2020-05-28,47.6028,-122.3292,ATT268_Murder hornet 3.jpg
{04F3EA07-38E2-4D39-8281-B7F05D79807C},2020-05-29 00:00:00,Negative ID,2020-05-29,48.62604,-122.359763,ATT272_15907104917385540760604136376000.jpg
{04F3EA07-38E2-4D39-8281-B7F05D79807C},2020-05-29 00:00:00,Negative ID,2020-05-29,48.62604,-122.359763,ATT273_15907105280712058698697689724664.jpg
{04F3EA07-38E2-4D39-8281-B7F05D79807C},2020-05-29 00:00:00,Negative ID,2020-05-29,48.62604,-122.359763,ATT274_15907105625236783966474010884117.jpg
{611F9EA3-B132-4ADF-9877-45730CEAB52B},2020-05-29 00:00:00,Negative ID,2020-05-29,47.605537,-122.305169,ATT275_EA0BF243-0D57-4160-B729-2D26302914F5.jpg
{364A0E82-4821-4E85-BCED-F2E9DC418D37},2020-05-29 00:00:00,Negative ID,2020-05-29,47.8216,-122.233076,ATT276_5121CFB7-C397-4CBA-82FC-30A97847EFE3.jpg
{364A0E82-4821-4E85-BCED-F2E9DC418D37},2020-05-29 00:00:00,Negative ID,2020-05-29,47.8216,-122.233076,ATT277_4FCACADB-E7D5-4307-9B26-DBFEFB125907.jpg
{FD10C1C0-5E91-40C7-86E5-DC394B9015DE},2020-05-28 00:00:00,Negative ID,2020-05-29,46.996464,-124.163885,ATT278_A86AA978-91DC-43FA-A199-6C3173C0CFA9.jpg
{9BDF61B5-B7FA-4C42-A4A4-46D9D5424C81},2020-05-15 00:00:00,Negative ID,2020-05-29,47.277398,-122.334705,ATT279_inbound2537648214746041790.jpg
{9BDF61B5-B7FA-4C42-A4A4-46D9D5424C81},2020-05-15 00:00:00,Negative ID,2020-05-29,47.277398,-122.334705,ATT280_inbound852042255292877101.jpg
{9BDF61B5-B7FA-4C42-A4A4-46D9D5424C81},2020-05-15 00:00:00,Negative ID,2020-05-29,47.277398,-122.334705,ATT281_inbound1417579250965443315.jpg
{6A255A84-F07B-4651-B119-659C559E46DF},2020-05-29 00:00:00,Negative ID,2020-05-29,47.492865,-122.241749,ATT282_15907854469505541529389916669796.jpg
{972F4DCC-059E-4A2C-AFC2-23912E9104B0},2020-05-29 00:00:00,Negative ID,2020-05-29,47.444904,-121.687534,ATT283_DSCN2678.jpg
{972F4DCC-059E-4A2C-AFC2-23912E9104B0},2020-05-29 00:00:00,Negative ID,2020-05-29,47.444904,-121.687534,ATT284_DSCN2677.jpg
{972F4DCC-059E-4A2C-AFC2-23912E9104B0},2020-05-29 00:00:00,Negative ID,2020-05-29,47.444904,-121.687534,ATT285_DSCN2676.jpg
{972F4DCC-059E-4A2C-AFC2-23912E9104B0},2020-05-29 00:00:00,Negative ID,2020-05-29,47.444904,-121.687534,ATT286_DSCN2674c.jpg
{15B9AA49-6994-4E68-8919-E93988F2AB9C},2020-05-29 00:00:00,Negative ID,2020-05-29,46.63976,-123.047277,ATT287_3608EA79-6EE8-4537-A67D-35DCC5A3FE95.jpg
{C4280251-B5A0-4812-8782-7EA44D06D68B},2020-05-29 00:00:00,Negative ID,2020-05-29,47.62984,-120.68945,ATT288_IMG_20200529_170902187.jpg
{C4280251-B5A0-4812-8782-7EA44D06D68B},2020-05-29 00:00:00,Negative ID,2020-05-29,47.62984,-120.68945,ATT289_IMG_20200529_172713_01.jpg
{C4280251-B5A0-4812-8782-7EA44D06D68B},2020-05-29 00:00:00,Negative ID,2020-05-29,47.62984,-120.68945,ATT290_IMG_20200529_170849479.jpg
{608E284E-506F-49DA-9D53-4B303773D564},2020-05-29 00:00:00,Negative ID,2020-05-29,47.962157,-122.107722,ATT291_20200529_155516.jpg
{608E284E-506F-49DA-9D53-4B303773D564},2020-05-29 00:00:00,Negative ID,2020-05-29,47.962157,-122.107722,ATT292_20200529_155519.jpg
{608E284E-506F-49DA-9D53-4B303773D564},2020-05-29 00:00:00,Negative ID,2020-05-29,47.962157,-122.107722,ATT293_20200529_155532.jpg
{84909857-3F5A-4B82-B617-F2B959D5F5D3},2020-05-29 00:00:00,Negative ID,2020-05-29,47.962156,-122.107725,ATT294_20200529_155516.jpg
{84909857-3F5A-4B82-B617-F2B959D5F5D3},2020-05-29 00:00:00,Negative ID,2020-05-29,47.962156,-122.107725,ATT295_20200529_155519.jpg
{84909857-3F5A-4B82-B617-F2B959D5F5D3},2020-05-29 00:00:00,Negative ID,2020-05-29,47.962156,-122.107725,ATT296_20200529_155532.jpg
{5FA8607B-FB71-4AF3-A919-657ACBBCE1AC},2020-05-11 00:00:00,Negative ID,2020-05-29,47.451177,-122.599167,ATT297_0B804271-183E-4CD9-9F36-A78BAA3FB7ED.jpg
{5FA8607B-FB71-4AF3-A919-657ACBBCE1AC},2020-05-11 00:00:00,Negative ID,2020-05-29,47.451177,-122.599167,ATT298_CF395822-72B8-421A-879D-6EEFA1A0D236.jpg
{5FA8607B-FB71-4AF3-A919-657ACBBCE1AC},2020-05-11 00:00:00,Negative ID,2020-05-29,47.451177,-122.599167,ATT299_0BC863FA-E682-4B21-980C-38A3A2172B64.jpg
{5FA8607B-FB71-4AF3-A919-657ACBBCE1AC},2020-05-11 00:00:00,Negative ID,2020-05-29,47.451177,-122.599167,ATT300_17E0F83F-BD9F-4955-8B91-6D2BA12878A2.jpg
{5FA8607B-FB71-4AF3-A919-657ACBBCE1AC},2020-05-11 00:00:00,Negative ID,2020-05-29,47.451177,-122.599167,ATT301_0C45DC3E-C606-4FBF-8638-2D6DC3D6003A.jpg
{A99DA6BE-ABA0-4437-B334-EA1C5A10B7A1},2020-05-29 00:00:00,Negative ID,2020-05-29,48.993305,-122.554091,ATT302_trim.146B941C-A15C-43F2-BDC0-25D2288D933C.MOV
{A992FAE8-C68D-48D7-AE59-BF81962022EE},2020-05-30 00:00:00,Negative ID,2020-05-30,48.072186,-121.041012,ATT304_A74393FE-ACD6-4D9D-AA76-241F0DEA7251.jpg
{CF2A5EAB-B844-4706-B029-65F6E7036C26},2020-05-26 00:00:00,Negative ID,2020-05-30,47.0036,-120.555779,ATT305_5AB6479C-1C14-4818-BC8D-D25449ABC2E9.jpg
{4F8C3859-C303-4056-8989-BDC5A75C070B},2020-05-30 00:00:00,Negative ID,2020-05-30,48.006804,-122.529558,ATT306_487C52A6-ABF9-4E7D-AFB1-C54BFB3FA94A.jpg
{1C31C24D-08BD-480A-89D8-236E074936CA},2020-05-29 00:00:00,Negative ID,2020-05-30,47.616086,-122.836705,ATT307_IMG_2867 (2).jpg
{1C31C24D-08BD-480A-89D8-236E074936CA},2020-05-29 00:00:00,Negative ID,2020-05-30,47.616086,-122.836705,ATT308_IMG_2868 (2).jpg
{1C31C24D-08BD-480A-89D8-236E074936CA},2020-05-29 00:00:00,Negative ID,2020-05-30,47.616086,-122.836705,ATT309_IMG_2868 (2).jpg
{1C31C24D-08BD-480A-89D8-236E074936CA},2020-05-29 00:00:00,Negative ID,2020-05-30,47.616086,-122.836705,ATT310_IMG_2868 (2).jpg
{88368CAB-CA45-4CDD-944A-C4004FC5F0F6},2020-05-05 00:00:00,Negative ID,2020-05-30,47.780919,-117.501431,ATT311_942FF0F5-E89A-45AD-8E9B-41FA84CE3E7B.jpg
{88368CAB-CA45-4CDD-944A-C4004FC5F0F6},2020-05-05 00:00:00,Negative ID,2020-05-30,47.780919,-117.501431,ATT312_2A8A66B9-4511-433C-A1A0-08DD912BC5AF.jpg
{88F59128-CC02-4773-892F-DC14BC0C095F},2020-05-30 00:00:00,Negative ID,2020-05-30,47.65726,-117.41228,ATT313_20200530_093544.jpg
{C37A28C1-F727-44D5-AFA4-D5679A22E67B},2020-05-30 00:00:00,Negative ID,2020-05-30,47.275828,-119.668888,ATT314_image.jpg
{C37A28C1-F727-44D5-AFA4-D5679A22E67B},2020-05-30 00:00:00,Negative ID,2020-05-30,47.275828,-119.668888,ATT315_image.jpg
{C37A28C1-F727-44D5-AFA4-D5679A22E67B},2020-05-30 00:00:00,Negative ID,2020-05-30,47.275828,-119.668888,ATT316_image.jpg
{8152453F-3680-40BA-B776-43785CD7049F},2020-05-30 00:00:00,Negative ID,2020-05-30,45.735281,-121.485014,ATT317_BE843923-234F-48A3-A5DE-284EED4B199A.jpg
{BB646AD8-7DF8-41BB-98C2-D43D67190CF1},2020-05-28 00:00:00,Negative ID,2020-05-30,48.200989,-122.487588,ATT318_IMG_20200528_084604901_BURST000_COVER.jpg
{45D5F2E7-8960-4B1A-BC6A-33C1980BFEA6},2020-05-31 00:00:00,Negative ID,2020-05-31,47.668141,-117.086632,ATT319_23B0BC35-988F-4844-B682-95A0AF731450.jpg
{526FF39C-F12A-48A7-95E3-1FA68ACD759F},2020-05-31 00:00:00,Negative ID,2020-05-31,47.67735,-122.39631,ATT320_20200531_140231.jpg
{526FF39C-F12A-48A7-95E3-1FA68ACD759F},2020-05-31 00:00:00,Negative ID,2020-05-31,47.67735,-122.39631,ATT321_20200531_140229.jpg
{B11CEB47-EDE5-4C89-96F7-962B31E2EBA8},2020-05-31 00:00:00,Negative ID,2020-05-31,46.416025,-117.04552,ATT322_image.jpg
{B11CEB47-EDE5-4C89-96F7-962B31E2EBA8},2020-05-31 00:00:00,Negative ID,2020-05-31,46.416025,-117.04552,ATT323_image.jpg
{F6BF36D2-9488-4DD7-A630-807B1EE5EBEF},2020-05-31 00:00:00,Negative ID,2020-05-31,47.78843,-122.31275,ATT324_20200531_140138.jpg
{F6BF36D2-9488-4DD7-A630-807B1EE5EBEF},2020-05-31 00:00:00,Negative ID,2020-05-31,47.78843,-122.31275,ATT325_20200531_140251.jpg
{F6BF36D2-9488-4DD7-A630-807B1EE5EBEF},2020-05-31 00:00:00,Negative ID,2020-05-31,47.78843,-122.31275,ATT326_20200531_140400.jpg
{2AB91D4B-5EFA-49D8-9AE9-1FF0D1D653F9},2020-05-31 00:00:00,Negative ID,2020-05-31,48.783888,-122.522103,ATT327_94C32EDB-5AFB-41F1-80B6-8A46B171D782.jpg
{56852749-7539-4E38-AA01-8644B6DFF6FF},2020-05-31 00:00:00,Negative ID,2020-05-31,48.485599,-122.360717,ATT328_824BE6C3-3A1A-439B-80AC-FB7C38DFA9E1.jpg
{9F28C97C-EFA6-4AE7-A13E-59AC6148F406},2020-05-30 00:00:00,Negative ID,2020-06-01,47.18676,-122.57624,ATT329_E7E98AE5-3C82-4CA1-B2D8-B4CF21FA8481.jpg
{945AAD92-21A0-488D-BA3A-797699E5C98A},2020-06-01 00:00:00,Negative ID,2020-06-01,47.291543,-123.169173,ATT330_hornet side.jpg
{945AAD92-21A0-488D-BA3A-797699E5C98A},2020-06-01 00:00:00,Negative ID,2020-06-01,47.291543,-123.169173,ATT331_hornet.jpg
{945AAD92-21A0-488D-BA3A-797699E5C98A},2020-06-01 00:00:00,Negative ID,2020-06-01,47.291543,-123.169173,ATT332_hornet.jpg
{9C673664-E5C1-46E3-98BA-EBE398853078},2020-05-21 00:00:00,Negative ID,2020-06-01,48.811222,-122.90242,ATT333_1C088F09-9FC0-4BD6-AE6A-A80E20559CE1.png
{1B8EA4C9-9416-450C-ABAD-68DCE6CF17D3},2020-06-01 00:00:00,Negative ID,2020-06-01,47.462612,-120.308007,ATT334_61272269159__586906B8-3156-4D4D-A102-FDC829B78D13.jpg
{1B8EA4C9-9416-450C-ABAD-68DCE6CF17D3},2020-06-01 00:00:00,Negative ID,2020-06-01,47.462612,-120.308007,ATT335_IMG_2496.jpg
{1B8EA4C9-9416-450C-ABAD-68DCE6CF17D3},2020-06-01 00:00:00,Negative ID,2020-06-01,47.462612,-120.308007,ATT336_IMG_2495.jpg
{695CADBA-F9F1-49E1-B5D9-C526F3A513E7},2020-06-01 00:00:00,Negative ID,2020-06-01,47.339405,-122.28456,ATT337_08254C14-437C-4A8E-90DD-B4A62F38510E.jpg
{C10974B8-6F59-448E-A5CB-785161105716},2020-06-01 00:00:00,Negative ID,2020-06-01,48.997011,-122.741704,ATT338_4D19A626-79CC-45A8-8C07-E48BD7B905A1.jpg
{01D94862-4158-42B6-964A-D185462F8616},2020-06-01 00:00:00,Negative ID,2020-06-01,47.263518,-122.647769,ATT339_20200601_152951.jpg
{01D94862-4158-42B6-964A-D185462F8616},2020-06-01 00:00:00,Negative ID,2020-06-01,47.263518,-122.647769,ATT340_20200601_153025.jpg
{01D94862-4158-42B6-964A-D185462F8616},2020-06-01 00:00:00,Negative ID,2020-06-01,47.263518,-122.647769,ATT341_20200601_153016.jpg
{2D8C52FD-0A61-4AE7-A3DB-C3D9DA17F93A},2020-05-23 00:00:00,Negative ID,2020-06-02,47.334771,-122.630724,ATT342_717AC237-E4F7-4C96-A4A7-F8D1C66B5685.jpg
{D3AC03C0-13AD-4AE8-BE24-A8976C8406AD},2020-06-02 00:00:00,Negative ID,2020-06-02,46.65221,-122.931688,ATT343_image.jpg
{D3AC03C0-13AD-4AE8-BE24-A8976C8406AD},2020-06-02 00:00:00,Negative ID,2020-06-02,46.65221,-122.931688,ATT344_image.jpg
{95F5DA49-242C-41E7-B1D7-075F2C75FA4C},2020-06-02 00:00:00,Negative ID,2020-06-02,47.48901,-117.57477,ATT345_image.jpg
{0BD5CF75-D5FE-493C-B40B-022C40CB9F33},2020-06-02 00:00:00,Negative ID,2020-06-02,47.306758,-122.031104,ATT346_4C136A80-8375-4EA9-B444-3D2D56799A4C.jpg
{0BD5CF75-D5FE-493C-B40B-022C40CB9F33},2020-06-02 00:00:00,Negative ID,2020-06-02,47.306758,-122.031104,ATT347_62F7AE61-8AC5-468D-8335-008F611AFFFC.jpg
{3B4CE095-DBF6-44CD-803C-7B9D2DFF45A4},2020-05-31 00:00:00,Negative ID,2020-06-02,47.532273,-121.853513,ATT348_F7905FCD-4A4C-46D8-94BB-19B96BE61D8D.jpg
{F25A32FF-EC2F-4CF1-81E8-F146F10036A5},2020-06-02 00:00:00,Negative ID,2020-06-02,48.930139,-122.521446,ATT350_15911421137971487826777156292476.jpg
{28368ED9-C7F4-4A52-85C3-1154B5DC9527},2020-06-03 00:00:00,Negative ID,2020-06-03,47.83763,-122.326455,ATT351_DD3D1DA8-0AEF-4896-9D65-3FF2B48F7A59.jpg
{E0DE554B-C250-4F67-8FA4-46F6955A60C9},2020-06-03 00:00:00,Negative ID,2020-06-03,47.928726,-122.02758,ATT352_IMG_20200603_104547.jpg
{8B47FBFF-9E67-41A5-9D8D-E3045D970BF3},2020-06-03 00:00:00,Negative ID,2020-06-03,47.518286,-122.388939,ATT353_EC788CAE-7F76-4198-90A4-7E9477DBC436.jpg
{A8C4C508-B466-4406-97E3-541D65CCABAE},2020-06-03 00:00:00,Negative ID,2020-06-03,47.774881,-122.387188,ATT354_IMG_3911.jpg
{63E382DA-6A7D-4907-878E-304B8DD4C25A},2020-06-03 00:00:00,Negative ID,2020-06-03,48.829563,-122.590623,ATT355_20200603_160536.jpg
{63E382DA-6A7D-4907-878E-304B8DD4C25A},2020-06-03 00:00:00,Negative ID,2020-06-03,48.829563,-122.590623,ATT356_20200603_160551.jpg
{A4E3EDB7-1DB1-4791-960F-B1C04B17C51E},2020-06-04 00:00:00,Negative ID,2020-06-04,48.237708,-122.245875,ATT357_15912296439561943722202776030566.jpg
{8FA0BCDB-525E-45C4-99F5-47C69EA30795},2020-05-11 00:00:00,Negative ID,2020-06-04,47.675314,-122.685149,ATT358_WP_20200511_14_37_49_Pro.jpg
{8FA0BCDB-525E-45C4-99F5-47C69EA30795},2020-05-11 00:00:00,Negative ID,2020-06-04,47.675314,-122.685149,ATT359_WP_20200511_14_38_06_Pro.jpg
{8FA0BCDB-525E-45C4-99F5-47C69EA30795},2020-05-11 00:00:00,Negative ID,2020-06-04,47.675314,-122.685149,ATT360_WP_20200511_14_38_17_Pro.jpg
{03971218-C08E-40E5-BED9-2D64888E2BA3},2020-06-04 00:00:00,Negative ID,2020-06-04,48.839058,-122.616491,ATT361_4A114A10-1073-41A7-A714-6D6B739AD312.jpg
{A2082A96-C2DB-4AA3-BF0F-0A4C506B77DB},2020-06-04 00:00:00,Negative ID,2020-06-04,47.677732,-122.157338,ATT362_9CBBA8B0-B490-46FB-91C4-9C13DA0A7FD5.jpg
{B8DD4E55-FDB7-40A3-AC73-510260EE1937},2020-06-04 00:00:00,Negative ID,2020-06-04,47.46849,-122.655433,ATT363_20200604_114230.jpg
{61A535A2-A6A1-4FF3-826F-FFC590C2694C},2020-06-04 00:00:00,Negative ID,2020-06-04,46.200507,-119.144673,ATT364_20200604_141617.jpg
{61A535A2-A6A1-4FF3-826F-FFC590C2694C},2020-06-04 00:00:00,Negative ID,2020-06-04,46.200507,-119.144673,ATT365_20200604_141621.jpg
{61A535A2-A6A1-4FF3-826F-FFC590C2694C},2020-06-04 00:00:00,Negative ID,2020-06-04,46.200507,-119.144673,ATT366_20200604_141623.jpg
{61A535A2-A6A1-4FF3-826F-FFC590C2694C},2020-06-04 00:00:00,Negative ID,2020-06-04,46.200507,-119.144673,ATT367_20200604_141619.jpg
{61A535A2-A6A1-4FF3-826F-FFC590C2694C},2020-06-04 00:00:00,Negative ID,2020-06-04,46.200507,-119.144673,ATT368_20200604_141611.jpg
{1C6D0EAB-F68D-411D-974E-1233618854CC},2020-05-15 00:00:00,Positive ID,2020-06-05,49.060215,-122.641648,ATT369_Langley 16 May.jpg
{C52DDE5A-4D6A-41C1-9F8D-968CFC35F1E8},2020-06-05 00:00:00,Negative ID,2020-06-05,45.654957,-122.677283,ATT370_1591316376740225387811.jpg
{9F419772-7DF5-4194-8B15-12FA2782FE4A},2020-06-05 00:00:00,Negative ID,2020-06-05,47.876941,-122.323487,ATT371_C40E200F-7F33-4247-8BFE-0757A2B04FD9.png
{E5034C05-6F2F-4D04-9D90-897EC06F0D4F},2020-06-05 00:00:00,Negative ID,2020-06-05,46.66113,-122.96692,ATT372_20200604_171231.jpg
{D5D42ECF-D2E4-4FA0-B76A-BE8A7EBED74E},2020-06-05 00:00:00,Negative ID,2020-06-05,47.731304,-122.172093,ATT373_WhatsApp Image 2020-06-04 at 6.24.27 PM (1).jpg
{D5D42ECF-D2E4-4FA0-B76A-BE8A7EBED74E},2020-06-05 00:00:00,Negative ID,2020-06-05,47.731304,-122.172093,ATT374_WhatsApp Image 2020-06-04 at 6.24.27 PM.jpg
{AC0ECA98-AAA7-4C62-9C40-BEF28C2B7696},2020-06-05 00:00:00,Negative ID,2020-06-05,45.712066,-122.479738,ATT375_Killer Wasp.jpg
{F7862C8B-1786-4945-AB76-008EE4A893EE},2020-06-04 00:00:00,Negative ID,2020-06-05,47.668471,-117.401621,ATT376_1BEA80BF-7C8E-4DD2-85E2-8A7F191DB231.jpg
{3F0940D9-C117-443F-81B0-4B057B638263},2020-06-04 00:00:00,Negative ID,2020-06-05,47.137397,-122.907133,ATT377_Possible Asian Giant Hornet 1.jpg
{3F0940D9-C117-443F-81B0-4B057B638263},2020-06-04 00:00:00,Negative ID,2020-06-05,47.137397,-122.907133,ATT378_Possible Asian Giant Hornet 2.jpg
{D5CEB39C-5EF1-41BC-B80A-57AF62338CF2},2020-06-05 00:00:00,Negative ID,2020-06-05,47.702775,-122.332383,ATT379_IMG_20200604_170833.jpg
{D5CEB39C-5EF1-41BC-B80A-57AF62338CF2},2020-06-05 00:00:00,Negative ID,2020-06-05,47.702775,-122.332383,ATT380_IMG_20200604_171437.jpg
{77456FBD-3F5F-439D-9B57-21C818D59E26},2020-06-05 00:00:00,Negative ID,2020-06-05,47.789639,-122.503281,ATT381_689DFEF3-AB92-48C5-9463-E1EC808BFC7C.jpg
{77456FBD-3F5F-439D-9B57-21C818D59E26},2020-06-05 00:00:00,Negative ID,2020-06-05,47.789639,-122.503281,ATT382_519CE5F6-4C00-4897-935A-582F47444F6A.jpg
{77456FBD-3F5F-439D-9B57-21C818D59E26},2020-06-05 00:00:00,Negative ID,2020-06-05,47.789639,-122.503281,ATT383_85440B7B-6079-4158-913F-18025BE762A0.jpg
{7967CF37-A8E8-492B-9601-6555798209A9},2020-07-05 00:00:00,Negative ID,2020-06-05,47.71862,-117.408025,ATT385_inbound3781154908404314973.jpg
{7967CF37-A8E8-492B-9601-6555798209A9},2020-07-05 00:00:00,Negative ID,2020-06-05,47.71862,-117.408025,ATT386_inbound7584466977531376943.jpg
{20D1C643-1D78-40D2-A569-9EDB3732F961},2020-06-06 00:00:00,Negative ID,2020-06-06,47.80694,-122.340925,ATT387_AC6D89B4-EA7C-44D3-8547-B4937A4089C7.jpg
{20D1C643-1D78-40D2-A569-9EDB3732F961},2020-06-06 00:00:00,Negative ID,2020-06-06,47.80694,-122.340925,ATT388_89189130-6F7C-4F82-9617-23B11A6A15F7.jpg
{6DD7F478-3CEC-4C2A-B29A-4BADBEC41E20},2020-06-04 00:00:00,Negative ID,2020-06-06,48.61057,-122.67602,ATT389_55E87CDB-27DF-401B-9F90-A90F093E2894.jpg
{F46A9A99-2BE6-4356-9B59-6F18B5145F86},2020-06-06 00:00:00,Negative ID,2020-06-06,48.154576,-122.300293,ATT390_15914074615771432219470385654508.jpg
{70AB6764-27F4-4350-8757-6B368256EE9D},2020-06-06 00:00:00,Negative ID,2020-06-06,47.551332,-122.085384,ATT391_911F429F-7662-4787-BBE8-0865F27A796A.jpg
{70AB6764-27F4-4350-8757-6B368256EE9D},2020-06-06 00:00:00,Negative ID,2020-06-06,47.551332,-122.085384,ATT392_8ACF259F-8A20-4624-AD08-15230C278EB0.jpg
{70AB6764-27F4-4350-8757-6B368256EE9D},2020-06-06 00:00:00,Negative ID,2020-06-06,47.551332,-122.085384,ATT393_4E163F02-33E3-4593-9FC7-3691A8FC78EE.jpg
{70AB6764-27F4-4350-8757-6B368256EE9D},2020-06-06 00:00:00,Negative ID,2020-06-06,47.551332,-122.085384,ATT394_8D7B3C83-E297-4BC1-8665-0DD8864BCFF3.jpg
{66651719-976E-43F9-85C0-A85D031633CE},2020-06-07 00:00:00,Negative ID,2020-06-07,47.99315,-122.54737,ATT396_C9213AAE-831E-49FD-92D5-DADD14C980A3.jpg
{B3D293AF-B52C-4D1D-B56E-EE94FE2AA65A},2020-06-07 00:00:00,Negative ID,2020-06-07,47.324833,-122.329105,ATT397_20200607_141512.jpg
{ABA0BE95-3C39-4CD5-807B-BE62104E1172},2020-06-07 00:00:00,Negative ID,2020-06-07,46.309571,-119.481345,ATT398_F7948884-7847-4FB7-BAB8-504B0B17837F.jpg
{ABA0BE95-3C39-4CD5-807B-BE62104E1172},2020-06-07 00:00:00,Negative ID,2020-06-07,46.309571,-119.481345,ATT399_03FBB708-E992-48D0-80AE-51980DEACF66.jpg
{F93C2C8D-8071-4E4D-B318-82EFD81C41FF},2020-06-08 00:00:00,Negative ID,2020-06-08,46.257852,-119.489194,ATT400_bee.jpg
{3298D3A7-ACC6-41C8-B29D-46A246FC6A9C},2020-06-08 00:00:00,Negative ID,2020-06-08,47.706928,-117.313966,ATT401_20200608_095903.jpg
{3298D3A7-ACC6-41C8-B29D-46A246FC6A9C},2020-06-08 00:00:00,Negative ID,2020-06-08,47.706928,-117.313966,ATT402_20200608_095914.jpg
{3298D3A7-ACC6-41C8-B29D-46A246FC6A9C},2020-06-08 00:00:00,Negative ID,2020-06-08,47.706928,-117.313966,ATT403_20200608_095952.jpg
{F2B9C312-762D-4204-A03C-5BE728844009},2020-06-09 00:00:00,Negative ID,2020-06-09,47.659325,-122.348394,ATT404_IMG_3203.jpg
{AAB40849-A217-4C07-AAA7-88DADBBF1CEA},2020-06-09 00:00:00,Negative ID,2020-06-09,47.565,-122.62749,ATT405_2708EFD6-97C3-46ED-8BED-A3E4BF6405C6.jpg
{F141DC16-0E2C-4261-B473-7C4D84B106D1},2020-06-09 00:00:00,Negative ID,2020-06-09,48.037025,-122.150728,ATT406_5E26E767-F5D1-4197-9823-AB00629F5182.jpg
{BC14811D-041A-4178-AB98-C4095A3113ED},2020-06-10 00:00:00,Negative ID,2020-06-10,47.001472,-120.543351,ATT407_54FE3563-BA44-498C-9C8E-1AA411338ADC.jpg
{8941775F-CB1A-4CC9-A97E-695EF2FF460D},2020-06-10 00:00:00,Negative ID,2020-06-10,47.630893,-122.290607,ATT408_IMG_3499.jpg
{8941775F-CB1A-4CC9-A97E-695EF2FF460D},2020-06-10 00:00:00,Negative ID,2020-06-10,47.630893,-122.290607,ATT409_IMG_3500.jpg
{70E1C2FB-21CC-4B51-A9CB-26D03F6A1926},2020-06-11 00:00:00,Negative ID,2020-06-11,47.761972,-117.365365,ATT410_20200610_164741_HDR.jpg
{70E1C2FB-21CC-4B51-A9CB-26D03F6A1926},2020-06-11 00:00:00,Negative ID,2020-06-11,47.761972,-117.365365,ATT411_15918340568267254831943163787586.jpg
{70E1C2FB-21CC-4B51-A9CB-26D03F6A1926},2020-06-11 00:00:00,Negative ID,2020-06-11,47.761972,-117.365365,ATT412_1591834305952411644120141070140.jpg
{70E1C2FB-21CC-4B51-A9CB-26D03F6A1926},2020-06-11 00:00:00,Negative ID,2020-06-11,47.761972,-117.365365,ATT413_15918344699857430635166705434970.jpg
{F24750DC-963A-4649-9C4D-265F1639FFFE},2020-06-11 00:00:00,Negative ID,2020-06-11,47.762095,-122.56811,ATT414_3A8A48F6-20D4-47DF-B957-65F5D969CB0B.jpg
{F24750DC-963A-4649-9C4D-265F1639FFFE},2020-06-11 00:00:00,Negative ID,2020-06-11,47.762095,-122.56811,ATT415_3C7ECC8E-2F0F-417A-AD2D-256DCB06C2F0.jpg
{F24750DC-963A-4649-9C4D-265F1639FFFE},2020-06-11 00:00:00,Negative ID,2020-06-11,47.762095,-122.56811,ATT416_67028987-B286-4980-B26E-13D87A30B9F2.jpg
{776E905D-1A04-42E9-81F7-96E15255F6C6},2020-06-11 00:00:00,Negative ID,2020-06-11,47.497014,-117.19934,ATT417_F4BD1B77-901A-4964-88DC-D958317D3630.jpg
{257039AA-7EE5-480B-92B5-D115E5CD98F1},2020-06-11 00:00:00,Negative ID,2020-06-11,45.63221,-122.67156,ATT418_EF752ADC-A65D-40C6-9F15-F399D5B86FA5.jpg
{561EC992-ED9C-485A-82F0-1422DBA2DEB3},2020-06-11 00:00:00,Negative ID,2020-06-11,47.926495,-122.41903,ATT419_E3B15D2E-7B82-475C-A1F0-1A03CD98D100.jpg
{F8241B62-542A-46A4-897E-48CB8729EA4F},2020-06-11 00:00:00,Negative ID,2020-06-11,48.891581,-122.350758,ATT420_20200611_163917.jpg
{7012BCA6-A315-432A-B435-517F11E11D42},2020-06-06 00:00:00,Negative ID,2020-06-12,46.411443,-117.04303,ATT421_61E4A062-4008-4E48-89D7-19C4FA630156.png
{FC6E894B-F6DF-4FDC-853A-D7372D253988},2020-06-07 00:00:00,Positive ID,2020-06-12,48.777534,-122.418612,ATT422_image001.jpg
{42C05D6A-A15F-44C4-8796-4EC1872E3D6C},2020-06-12 00:00:00,Negative ID,2020-06-12,47.185559,-121.959895,ATT423_20200611_173028.jpg
{42C05D6A-A15F-44C4-8796-4EC1872E3D6C},2020-06-12 00:00:00,Negative ID,2020-06-12,47.185559,-121.959895,ATT424_20200611_173022.jpg
{42C05D6A-A15F-44C4-8796-4EC1872E3D6C},2020-06-12 00:00:00,Negative ID,2020-06-12,47.185559,-121.959895,ATT425_20200611_172808.jpg
{42C05D6A-A15F-44C4-8796-4EC1872E3D6C},2020-06-12 00:00:00,Negative ID,2020-06-12,47.185559,-121.959895,ATT426_20200611_172751.jpg
{156FBF29-48E2-4958-B1AA-9B0D8168ABC3},2020-06-11 00:00:00,Negative ID,2020-06-12,49.00222,-122.738239,ATT427_47FB3585-0E44-4090-8968-705115DC56FF.jpg
{156FBF29-48E2-4958-B1AA-9B0D8168ABC3},2020-06-11 00:00:00,Negative ID,2020-06-12,49.00222,-122.738239,ATT428_9C8DA090-D743-4C60-B7C9-FDE4437CE4CC.jpg
{156FBF29-48E2-4958-B1AA-9B0D8168ABC3},2020-06-11 00:00:00,Negative ID,2020-06-12,49.00222,-122.738239,ATT429_B64C0F24-9304-4AFF-B57A-F377F560EC6C.jpg
{6BFE557F-A90C-47FA-A025-2892708DABCC},2020-06-11 00:00:00,Negative ID,2020-06-12,47.986131,-122.124511,ATT430_CC9006A6-BFE3-4845-8DA8-0AE07EF79F19.jpg
{969E3B3E-657B-4FD4-AEC5-CFA01C11EC77},2020-04-29 00:00:00,Negative ID,2020-06-12,47.133712,-122.431896,ATT431_20200429_124102.jpg
{969E3B3E-657B-4FD4-AEC5-CFA01C11EC77},2020-04-29 00:00:00,Negative ID,2020-06-12,47.133712,-122.431896,ATT432_20200429_124056.jpg
{969E3B3E-657B-4FD4-AEC5-CFA01C11EC77},2020-04-29 00:00:00,Negative ID,2020-06-12,47.133712,-122.431896,ATT433_20200429_124220.jpg
{969E3B3E-657B-4FD4-AEC5-CFA01C11EC77},2020-04-29 00:00:00,Negative ID,2020-06-12,47.133712,-122.431896,ATT434_20200429_124430.jpg
{969E3B3E-657B-4FD4-AEC5-CFA01C11EC77},2020-04-29 00:00:00,Negative ID,2020-06-12,47.133712,-122.431896,ATT435_20200429_124839.jpg
{059D6B7A-D8F5-4A5F-8C4A-332A292EE409},2020-05-18 00:00:00,Negative ID,2020-06-12,48.90749,-122.355099,ATT436_IMG_20200518_125244766_HDR[1].jpg
{A20C88C4-CCFC-46F5-B454-FAA778DABA55},2020-11-20 00:00:00,Negative ID,2020-06-12,48.77371,-122.360487,ATT437_F2A8DE61-E48F-4E03-B3BA-1ED28891A137.jpg
{A20C88C4-CCFC-46F5-B454-FAA778DABA55},2020-11-20 00:00:00,Negative ID,2020-06-12,48.77371,-122.360487,ATT438_D24F2336-8237-4161-B639-E40F31E0E2C4.jpg
{63334225-E4CA-4A70-B152-18E5F9636275},2020-06-12 00:00:00,Negative ID,2020-06-12,46.211139,-119.805043,ATT439_trim.52424BC0-74B6-4E5F-8ED0-A41999D6D21C.MOV
{63334225-E4CA-4A70-B152-18E5F9636275},2020-06-12 00:00:00,Negative ID,2020-06-12,46.211139,-119.805043,ATT440_trim.53B98CCF-514C-4F76-A452-8AB789111344.MOV
{259AADEA-CE63-4151-B4A2-11F75F79FD10},2019-05-02 00:00:00,Negative ID,2020-06-12,47.626955,-122.539736,ATT441_IMG_9859.jpg
{A45C1484-59D0-4092-A857-10D7E0CC06A6},2020-06-12 00:00:00,Negative ID,2020-06-12,48.706893,-122.485343,ATT442_20200612_163925.jpg
{A45C1484-59D0-4092-A857-10D7E0CC06A6},2020-06-12 00:00:00,Negative ID,2020-06-12,48.706893,-122.485343,ATT443_20200612_164004.jpg
{22CB2B5C-9636-4C1A-9E12-E42AC8C5AFCA},2020-06-13 00:00:00,Negative ID,2020-06-13,46.43015,-124.027376,ATT444_34135072-D0ED-488F-9449-EB7EC2FAEBA9.jpg
{22CB2B5C-9636-4C1A-9E12-E42AC8C5AFCA},2020-06-13 00:00:00,Negative ID,2020-06-13,46.43015,-124.027376,ATT445_3889F41F-B5A2-453B-BD4A-2483F2B50B1E.jpg
{8F1D9801-B573-46C9-8915-2501DA738370},2020-06-05 00:00:00,Negative ID,2020-06-13,47.789125,-122.504333,ATT446_017415DC-3E9D-42B9-8490-F30FFE28A27D.jpg
{8F1D9801-B573-46C9-8915-2501DA738370},2020-06-05 00:00:00,Negative ID,2020-06-13,47.789125,-122.504333,ATT447_1D48A81C-0C21-4478-B245-61D6DDE7CCD0.jpg
{9A1BF7F0-5376-475A-A97F-9F5021E11887},2020-06-09 00:00:00,Negative ID,2020-06-13,47.40376,-122.460029,ATT448_IMG_20200608_095301.jpg
{C4C40CAA-8B91-400B-987B-2AC11096CB4D},2020-06-13 00:00:00,Negative ID,2020-06-13,48.854729,-122.28489,ATT449_inbound1240056298952570304.jpg
{C4C40CAA-8B91-400B-987B-2AC11096CB4D},2020-06-13 00:00:00,Negative ID,2020-06-13,48.854729,-122.28489,ATT450_inbound3211439997910755311.jpg
{C4C40CAA-8B91-400B-987B-2AC11096CB4D},2020-06-13 00:00:00,Negative ID,2020-06-13,48.854729,-122.28489,ATT451_inbound4715969043438888441.jpg
{18760444-1C55-4A89-BF2E-F3DD12087880},2020-06-06 00:00:00,Negative ID,2020-06-13,48.805788,-122.68008,ATT452_20200606_161003.jpg
{DC8F4FF7-5706-4FBF-8DC2-D194E0099F3A},2020-06-13 00:00:00,Negative ID,2020-06-13,47.041687,-122.959724,ATT453_8F016FE5-477A-43B0-A9C3-DE4F35BF5191.jpg
{DC8F4FF7-5706-4FBF-8DC2-D194E0099F3A},2020-06-13 00:00:00,Negative ID,2020-06-13,47.041687,-122.959724,ATT454_C5C66CE9-DA48-4FD6-9C1B-4E48C30A254F.jpg
{9BF3A794-84EE-443F-9330-0774187D01F2},2020-06-14 00:00:00,Negative ID,2020-06-14,47.771731,-122.22176,ATT456_image.jpg
{34A4CF30-8011-4026-B034-5FB87C1B68DE},2020-06-13 00:00:00,Negative ID,2020-06-14,47.256264,-122.214568,ATT457_F4BAD25C-69BC-4B41-8379-F2ADB3E16803.jpg
{771EAA5F-D162-4B9D-8C7E-D102C7611FC5},2020-06-10 00:00:00,Negative ID,2020-06-14,47.833951,-117.825891,ATT458_CD4A3446-FF36-4C32-9C29-66185F53B441.jpg
{5F62F505-E2BE-453A-9FBC-38BBCC1CD103},2020-06-14 00:00:00,Negative ID,2020-06-14,46.301642,-119.371329,ATT459_20200614_121049.jpg
{5F62F505-E2BE-453A-9FBC-38BBCC1CD103},2020-06-14 00:00:00,Negative ID,2020-06-14,46.301642,-119.371329,ATT460_15921620158552183186389318997089.jpg
{71DBFC9D-B994-44CB-9319-76D6281AAF94},2020-06-14 00:00:00,Negative ID,2020-06-14,46.250325,-119.296151,ATT461_4E84431F-A513-4FCF-90CE-EEC55DF94E5D.jpg
{FFAB9655-A203-47D6-BAFB-BFB0818E7CDD},2020-06-14 00:00:00,Negative ID,2020-06-14,47.287735,-116.936844,ATT462_49F3CE7F-19DC-4D81-ACBE-ED0916270AB7.jpg
{05561194-9CB6-4857-8626-DA2CED599AEE},2020-06-14 00:00:00,Negative ID,2020-06-14,47.737018,-122.249162,ATT463_image000002.jpg
{652D69E0-D404-4239-B2C7-279581E7D973},2020-06-14 00:00:00,Negative ID,2020-06-14,46.925734,-122.436726,ATT464_IMG_2974.jpg
{0258F644-F8FF-48F6-9B5C-8902259012FC},2020-06-14 00:00:00,Negative ID,2020-06-14,47.689009,-121.949504,ATT465_5E4D8088-776D-447D-A613-B4629270F4AE.jpg
{8059DAD5-4BB7-40A8-8DF6-E14557D6930D},2020-06-14 00:00:00,Negative ID,2020-06-15,46.918502,-123.015297,ATT467_One.jpg
{8059DAD5-4BB7-40A8-8DF6-E14557D6930D},2020-06-14 00:00:00,Negative ID,2020-06-15,46.918502,-123.015297,ATT468_Two.jpg
{DE6A95B2-2A37-4E48-B02D-5F39831B16F7},2020-06-15 00:00:00,Negative ID,2020-06-15,47.713131,-122.355548,ATT469_3B1906C0-E46E-493B-9A14-124586CE4EEC.jpg
{7A19FB8F-D8D4-4EF2-A18B-1F7C4B7B16F8},2020-06-14 00:00:00,Negative ID,2020-06-15,47.737396,-122.170982,ATT470_FD967BFB-A1B5-4813-A131-A2BE6643192D.jpg
{28F0C10D-ED14-4185-B707-74B936C2B6F6},2020-06-12 00:00:00,Negative ID,2020-06-15,47.887989,-119.942044,ATT471_MURDER HORNET
{7F3B6DB6-2ED4-4415-8DC2-3F03EC88F353},2019-09-30 00:00:00,Positive ID,2020-06-15,48.993892,-122.702242,ATT472_9246EB0A-0DDF-420C-979D-C631943D3BFD.jpg
{8A832F6C-89B0-4C31-B68D-C68485425834},2020-06-15 00:00:00,Negative ID,2020-06-16,47.379685,-122.949351,ATT473_1_20200615_132016.mp4
{C0ECD91E-7C53-4D1F-92C7-069314E57588},2020-06-16 00:00:00,Negative ID,2020-06-16,47.115216,-122.300735,ATT474_F796A709-F090-4813-AE89-4B3AB17E7FEC.jpg
{6DFBCA80-2A0C-4D2A-8629-D0A0950F60A7},2020-06-16 00:00:00,Negative ID,2020-06-16,48.95876,-122.44122,ATT475_IMG_74671.jpg
{0AE156AF-7EF0-4156-9766-5C16F11E29AC},2020-06-15 00:00:00,Negative ID,2020-06-16,47.666042,-117.288787,ATT476_image.jpg
{0AE156AF-7EF0-4156-9766-5C16F11E29AC},2020-06-15 00:00:00,Negative ID,2020-06-16,47.666042,-117.288787,ATT477_image.jpg
{CFDFE655-88D7-439E-8358-1E04E665E1A2},2020-06-16 00:00:00,Negative ID,2020-06-16,48.1212,-122.77263,ATT478_6D008FA9-B555-4123-90E2-EE73A9222AD2.jpg
{C3E943C8-CB34-494E-BCD2-7B75C3F89ADC},2020-06-16 00:00:00,Negative ID,2020-06-16,47.699514,-122.369371,ATT479_IMG_0489.jpg
{C3E943C8-CB34-494E-BCD2-7B75C3F89ADC},2020-06-16 00:00:00,Negative ID,2020-06-16,47.699514,-122.369371,ATT480_IMG_0490.jpg
{C3E943C8-CB34-494E-BCD2-7B75C3F89ADC},2020-06-16 00:00:00,Negative ID,2020-06-16,47.699514,-122.369371,ATT481_IMG_0491.jpg
{48D5E6A9-76A0-4A16-839A-C0CCEE18A25C},2020-06-17 00:00:00,Negative ID,2020-06-17,48.088346,-122.057132,ATT482_7CA66940-2AA6-4A72-866B-66C1CEC11DEA.jpg
{48D5E6A9-76A0-4A16-839A-C0CCEE18A25C},2020-06-17 00:00:00,Negative ID,2020-06-17,48.088346,-122.057132,ATT483_DB27CC5F-0B92-4545-BB0F-049E2C536BC4.jpg
{48D5E6A9-76A0-4A16-839A-C0CCEE18A25C},2020-06-17 00:00:00,Negative ID,2020-06-17,48.088346,-122.057132,ATT484_C9FA9906-E9D5-425F-9B31-042AF0D61F55.jpg
{88DB8873-D69F-48BA-B5C8-641CEB301003},2020-06-17 00:00:00,Negative ID,2020-06-17,48.835031,-122.480637,ATT485_034.jpg
{09E76D56-D893-406F-834B-99FA42F03CDC},2020-06-17 00:00:00,Negative ID,2020-06-17,47.544377,-122.383195,ATT486_108276ED-967B-4DD8-88F7-CFBD3F20480E.jpg
{09E76D56-D893-406F-834B-99FA42F03CDC},2020-06-17 00:00:00,Negative ID,2020-06-17,47.544377,-122.383195,ATT487_67E488FF-8BD6-43CD-900E-99D12105B4ED.jpg
{08ED1BF2-C86B-4898-8110-F1E5B856E5DD},2020-06-13 00:00:00,Negative ID,2020-06-17,46.520671,-124.040339,ATT488_83AE0D90-AE13-4E5C-91A6-632401E69C8A.jpg
{08ED1BF2-C86B-4898-8110-F1E5B856E5DD},2020-06-13 00:00:00,Negative ID,2020-06-17,46.520671,-124.040339,ATT489_31F9BB6A-A88E-48FA-918E-695AA6909295.jpg
{08ED1BF2-C86B-4898-8110-F1E5B856E5DD},2020-06-13 00:00:00,Negative ID,2020-06-17,46.520671,-124.040339,ATT490_FE8EBC7F-77E1-402E-B19B-12B8E05128B8.jpg
{E4957AF1-2D8B-432E-9CC1-E4107AD38D75},2020-06-17 00:00:00,Negative ID,2020-06-17,48.452302,-122.233709,ATT491_9BEB1D3A-7AC4-436A-9004-4EC54EECEBCE.jpg
{0DEE1563-1D7B-4B80-8872-03C1E5ABCF96},2020-06-17 00:00:00,Negative ID,2020-06-17,47.101698,-122.317205,ATT492_BE563F1A-9264-4BB9-9A1D-65FF7FBB72F4.jpg
{0DEE1563-1D7B-4B80-8872-03C1E5ABCF96},2020-06-17 00:00:00,Negative ID,2020-06-17,47.101698,-122.317205,ATT493_44104D2D-BB25-4535-820D-359F80C7A5CC.jpg
{6560E534-7FEA-459A-AA33-1146A57B4919},2020-06-17 00:00:00,Negative ID,2020-06-17,47.872818,-121.816455,ATT494_20200617_125452.jpg
{6560E534-7FEA-459A-AA33-1146A57B4919},2020-06-17 00:00:00,Negative ID,2020-06-17,47.872818,-121.816455,ATT495_20200617_105017.jpg
{6560E534-7FEA-459A-AA33-1146A57B4919},2020-06-17 00:00:00,Negative ID,2020-06-17,47.872818,-121.816455,ATT496_20200617_105007.jpg
{6560E534-7FEA-459A-AA33-1146A57B4919},2020-06-17 00:00:00,Negative ID,2020-06-17,47.872818,-121.816455,ATT497_20200617_104953.jpg
{60B30228-0C6B-4050-8EDD-970A63DCA629},2020-06-17 00:00:00,Negative ID,2020-06-17,48.897924,-122.419118,ATT498_20200617_131637.jpg
{80F7B163-D4C6-42E1-B230-2FD594726E4F},2020-06-17 00:00:00,Negative ID,2020-06-17,47.664903,-122.422196,ATT499_IMG_20200617_130920.jpg
{80F7B163-D4C6-42E1-B230-2FD594726E4F},2020-06-17 00:00:00,Negative ID,2020-06-17,47.664903,-122.422196,ATT500_IMG_20200617_130859.jpg
{833F6D5F-5B79-4140-AF08-C42A2524DF37},2020-06-17 00:00:00,Negative ID,2020-06-17,47.264643,-122.531842,ATT501_20200617_133818.jpg
{7ED7A47A-25D6-4756-BB66-CCD295EC0E7D},2020-06-17 00:00:00,Negative ID,2020-06-17,47.678839,-117.479113,ATT502_bigbug.jpg
{607A1262-1320-424E-A7DF-8D48E7A2ABC2},2020-06-17 00:00:00,Negative ID,2020-06-17,47.394407,-117.337027,ATT503_20200617_163848.jpg
{607A1262-1320-424E-A7DF-8D48E7A2ABC2},2020-06-17 00:00:00,Negative ID,2020-06-17,47.394407,-117.337027,ATT504_20200617_163841.jpg
{132DC9F7-D520-40C9-BA39-32CEBAEEB2E6},2020-06-18 00:00:00,Negative ID,2020-06-18,47.62984,-120.68945,ATT505_D6223035-74FB-4FD1-98EC-FC246C0239CF.jpg
{8A550278-FD92-469D-B60E-59E3E0B3D5E1},2020-06-18 00:00:00,Negative ID,2020-06-18,47.863663,-120.071108,ATT506_2A885696-46FC-42A3-BEAB-5178A12A0849.jpg
{8A550278-FD92-469D-B60E-59E3E0B3D5E1},2020-06-18 00:00:00,Negative ID,2020-06-18,47.863663,-120.071108,ATT507_2D1FC45B-A7C4-471E-83E9-184BA7F46BBC.jpg
{8A550278-FD92-469D-B60E-59E3E0B3D5E1},2020-06-18 00:00:00,Negative ID,2020-06-18,47.863663,-120.071108,ATT508_D8114234-FC2C-4A3C-AABA-B99ADC9CF8C7.jpg
{DD3E59B1-9CA5-41D6-B264-1E4548265875},2020-06-17 00:00:00,Negative ID,2020-06-18,47.614941,-117.363146,ATT509_A8CC73BE-7404-44D5-BFC5-64656FF95516.jpg
{352E06AC-27CF-4D8C-AA04-DD624D4F6922},2020-06-18 00:00:00,Negative ID,2020-06-18,48.410073,-119.49506,ATT510_inbound5085819519917950650.jpg
{F7A5D9C9-9DDD-485E-92BE-F9CA7912036C},2020-06-18 00:00:00,Negative ID,2020-06-18,48.113648,-122.794458,ATT511_52186D47-CD9C-4049-BE25-7D7E5052C61E.jpg
{68B1BEC8-D927-43EB-B498-1422632A2B8D},2020-06-18 00:00:00,Negative ID,2020-06-18,47.548071,-122.258975,ATT512_5836F875-D462-472C-A78C-EEE61031A13B.jpg
{68B1BEC8-D927-43EB-B498-1422632A2B8D},2020-06-18 00:00:00,Negative ID,2020-06-18,47.548071,-122.258975,ATT513_3676EBF5-E522-44BF-A72A-1DFEB0DD22AD.jpg
{68B1BEC8-D927-43EB-B498-1422632A2B8D},2020-06-18 00:00:00,Negative ID,2020-06-18,47.548071,-122.258975,ATT514_B42A229C-3C95-42B0-AC1C-3EC1AA38420C.jpg
{68B1BEC8-D927-43EB-B498-1422632A2B8D},2020-06-18 00:00:00,Negative ID,2020-06-18,47.548071,-122.258975,ATT515_9B5A0987-9B79-40D4-BDE9-0B61DFF16A33.jpg
{68B1BEC8-D927-43EB-B498-1422632A2B8D},2020-06-18 00:00:00,Negative ID,2020-06-18,47.548071,-122.258975,ATT516_5CB17867-F8EF-45EF-970A-1B8F08663E55.jpg
{68B1BEC8-D927-43EB-B498-1422632A2B8D},2020-06-18 00:00:00,Negative ID,2020-06-18,47.548071,-122.258975,ATT517_CB4FADDE-2C4E-4E1F-A7AD-592C91BDD57A.jpg
{68B1BEC8-D927-43EB-B498-1422632A2B8D},2020-06-18 00:00:00,Negative ID,2020-06-18,47.548071,-122.258975,ATT518_AF24E4D7-538A-4907-A49A-79247A352D8C.jpg
{666B5A37-4583-417E-A3C5-F9349FC6CF70},2020-06-18 00:00:00,Negative ID,2020-06-18,48.758415,-122.421308,ATT519_BD63A0BE-920C-4885-9E25-7A564C5B0AFC.jpg
{78CA94AF-67CA-4525-AA8F-F9EE5908E2BA},2020-06-18 00:00:00,Negative ID,2020-06-18,46.28451,-119.192993,ATT520_8F60FE08-0377-4430-87B0-FC8FB125D217.jpg
{0B1EB505-BBCE-45BC-94A6-685A76484A2F},2020-06-18 00:00:00,Negative ID,2020-06-18,48.9429,-122.45079,ATT521_IMG_2686.jpg
{F831637D-23AB-4BD5-90A4-D4E8AC59B91F},2020-06-18 00:00:00,Negative ID,2020-06-18,47.413739,-122.629608,ATT522_8A3D1E61-127E-4462-8C99-CE075B7BA597.jpg
{8ED4370E-11BB-4FE8-AA1E-2BA9BC487B71},2020-06-18 00:00:00,Negative ID,2020-06-18,47.83985,-120.01452,ATT523_20200618_161231.jpg
{8ED4370E-11BB-4FE8-AA1E-2BA9BC487B71},2020-06-18 00:00:00,Negative ID,2020-06-18,47.83985,-120.01452,ATT524_20200618_161204.jpg
{8ED4370E-11BB-4FE8-AA1E-2BA9BC487B71},2020-06-18 00:00:00,Negative ID,2020-06-18,47.83985,-120.01452,ATT525_20200618_161127.jpg
{8ED4370E-11BB-4FE8-AA1E-2BA9BC487B71},2020-06-18 00:00:00,Negative ID,2020-06-18,47.83985,-120.01452,ATT526_20200618_161106.jpg
{8ED4370E-11BB-4FE8-AA1E-2BA9BC487B71},2020-06-18 00:00:00,Negative ID,2020-06-18,47.83985,-120.01452,ATT527_20200618_160802.jpg
{C2373FAB-49C6-4B09-8D9F-E9BC744A6C35},2020-06-19 00:00:00,Negative ID,2020-06-19,47.785024,-122.290134,ATT528_IMG-0538.jpg
{C2373FAB-49C6-4B09-8D9F-E9BC744A6C35},2020-06-19 00:00:00,Negative ID,2020-06-19,47.785024,-122.290134,ATT529_IMG-0539.jpg
{C2373FAB-49C6-4B09-8D9F-E9BC744A6C35},2020-06-19 00:00:00,Negative ID,2020-06-19,47.785024,-122.290134,ATT530_IMG-0540.jpg
{C2373FAB-49C6-4B09-8D9F-E9BC744A6C35},2020-06-19 00:00:00,Negative ID,2020-06-19,47.785024,-122.290134,ATT531_IMG-0541.jpg
{C2373FAB-49C6-4B09-8D9F-E9BC744A6C35},2020-06-19 00:00:00,Negative ID,2020-06-19,47.785024,-122.290134,ATT532_IMG-0542.jpg
{C2373FAB-49C6-4B09-8D9F-E9BC744A6C35},2020-06-19 00:00:00,Negative ID,2020-06-19,47.785024,-122.290134,ATT533_IMG-0543.jpg
{DFB93DE7-7EA9-43F1-8D47-E84B7E0F0265},2020-06-19 00:00:00,Negative ID,2020-06-19,48.741044,-122.475843,ATT535_IMG_8274.jpg
{DFB93DE7-7EA9-43F1-8D47-E84B7E0F0265},2020-06-19 00:00:00,Negative ID,2020-06-19,48.741044,-122.475843,ATT536_IMG_8277.jpg
{DFB93DE7-7EA9-43F1-8D47-E84B7E0F0265},2020-06-19 00:00:00,Negative ID,2020-06-19,48.741044,-122.475843,ATT537_IMG_8278.jpg
{85D9B9D1-717F-4727-A3EE-96EE12D7AF52},2020-06-19 00:00:00,Negative ID,2020-06-19,47.177089,-122.370846,ATT538_1A199D1E-620F-459C-A5FD-90404ADE59D3.jpg
{425E9D56-3CB9-4765-B542-64791E6C4A4D},2020-06-19 00:00:00,Negative ID,2020-06-19,47.594215,-122.046071,ATT539_56EB8A75-2E87-4540-B36C-44480BE0EA61.jpg
{5778ED6F-8C93-444E-A7BA-55D3CF856BAE},2020-06-20 00:00:00,Negative ID,2020-06-20,47.338979,-122.727563,ATT540_20200619_172229.jpg
{10D9028A-6EA2-4F30-846F-98AEFCA0F71D},2020-06-20 00:00:00,Negative ID,2020-06-20,47.82532,-122.29244,ATT542_D3B83B28-D962-446A-9CF4-A367BB95EA75.jpg
{00A1C7DF-8F64-47B7-9E85-79E164F6931F},2020-06-20 00:00:00,Negative ID,2020-06-20,48.506728,-122.250809,ATT543_inbound4081317946561997608.jpg
{00A1C7DF-8F64-47B7-9E85-79E164F6931F},2020-06-20 00:00:00,Negative ID,2020-06-20,48.506728,-122.250809,ATT544_inbound7009843853376437469.jpg
{00A1C7DF-8F64-47B7-9E85-79E164F6931F},2020-06-20 00:00:00,Negative ID,2020-06-20,48.506728,-122.250809,ATT545_inbound7722102071019242684.jpg
{F17B2B17-CF4B-41D3-8F84-380FF76736DD},2020-06-20 00:00:00,Negative ID,2020-06-20,46.619127,-120.528499,ATT546_23A63F87-BC42-4D5A-B5F6-DA12EA50D6D5.jpg
{F41FFB3C-1EC4-4FA2-A075-5E5C5ABDFBE5},2020-06-19 00:00:00,Negative ID,2020-06-20,47.843397,-120.023005,ATT547_BEDD35E0-3C04-480F-82F0-D0DD5FAD0E75.jpg
{07A59172-FD68-4803-8EF6-B11324C11BC0},2020-06-20 00:00:00,Negative ID,2020-06-20,48.604597,-118.515716,ATT548_61437996058__BAB86D9B-90C6-4217-8251-9B080051D887.MOV
{98564782-E491-41A4-88F2-5677C3113351},2020-06-21 00:00:00,Negative ID,2020-06-21,47.83616,-120.01641,ATT554_70578FFE-323C-4475-B6B9-A254499D7086.jpg
{7E99DF8B-565D-410B-82A8-026ACB618AF7},2020-06-21 00:00:00,Negative ID,2020-06-21,48.717088,-122.340659,ATT555_IMG_20200621_135346233.jpg
{7E99DF8B-565D-410B-82A8-026ACB618AF7},2020-06-21 00:00:00,Negative ID,2020-06-21,48.717088,-122.340659,ATT556_IMG_20200621_135304572.jpg
{4174F9BD-3F78-4A43-B997-08B76DA1F20B},2020-06-21 00:00:00,Negative ID,2020-06-22,48.790046,-122.561069,ATT557_C6CCC2EA-F6D0-42FD-ACB4-D0CCBBFCCF46.jpg
{C8E31576-E253-4640-9F98-8716C5B744B7},2020-06-22 00:00:00,Negative ID,2020-06-22,47.684794,-122.297044,ATT558_61E837EC-466B-4E71-887B-E11F7BDBE603.jpg
{C8E31576-E253-4640-9F98-8716C5B744B7},2020-06-22 00:00:00,Negative ID,2020-06-22,47.684794,-122.297044,ATT559_0D6A1BCE-109F-466F-88D3-6E849B54EBD6.jpg
{41301231-94B6-4536-BD4A-71D40929E2BC},2020-06-23 00:00:00,Negative ID,2020-06-23,48.759107,-122.473309,ATT560_89AF7FA7-CD6B-4B86-9B2F-547F1640D59D.jpg
{41301231-94B6-4536-BD4A-71D40929E2BC},2020-06-23 00:00:00,Negative ID,2020-06-23,48.759107,-122.473309,ATT561_5BE765CF-3CFF-411E-A9EB-A1E8A8030D23.jpg
{1431A12A-26B1-49C3-9418-85A2CDE26669},2020-06-23 00:00:00,Negative ID,2020-06-23,47.75863,-122.14967,ATT562_BE8D8FA7-5BC6-4EF3-A2B4-DAC7C8B46805.jpg
{9439BD5E-E414-4B86-9CEE-C9395F84D717},2020-06-21 00:00:00,Negative ID,2020-06-23,48.102067,-123.473241,ATT563_IMG_20200622_192236023.jpg
{9439BD5E-E414-4B86-9CEE-C9395F84D717},2020-06-21 00:00:00,Negative ID,2020-06-23,48.102067,-123.473241,ATT564_IMG_20200622_192210060.jpg
{B0A38A67-5CB7-42A4-9EB1-4563B2512E96},2020-06-23 00:00:00,Negative ID,2020-06-23,47.313834,-122.219523,ATT565_IMG_53971.jpg
{A0C8D5DE-9E22-4DA2-8490-5579889FF734},2020-06-23 00:00:00,Negative ID,2020-06-23,48.84756,-122.59351,ATT566_CF1E460C-BF50-4CEB-991B-167B4AE4F5FA.jpg
{A0C8D5DE-9E22-4DA2-8490-5579889FF734},2020-06-23 00:00:00,Negative ID,2020-06-23,48.84756,-122.59351,ATT567_0E458466-E355-4F69-BFA1-0D380A75414F.jpg
{4C288DBF-DDFD-4998-AD2E-68251B12CDE5},2020-06-23 00:00:00,Negative ID,2020-06-23,45.711289,-120.4632,ATT568_EC89CACD-D2CB-4B23-BC1F-4B7F05CD2148.jpg
{4C288DBF-DDFD-4998-AD2E-68251B12CDE5},2020-06-23 00:00:00,Negative ID,2020-06-23,45.711289,-120.4632,ATT569_67CAC40C-DB0B-4702-911A-52C8F99EB7EE.jpg
{4C288DBF-DDFD-4998-AD2E-68251B12CDE5},2020-06-23 00:00:00,Negative ID,2020-06-23,45.711289,-120.4632,ATT570_43E000B1-0700-41B9-97C8-990C56585049.jpg
{7BC8B5C6-7FD9-4199-901F-0AD228257A7A},2020-06-24 00:00:00,Negative ID,2020-06-24,48.967425,-122.259512,ATT571_01AB3631-061D-45E8-9C8C-00FCBC4FAF46.jpg
{BB15E426-7F5F-4CDB-9102-EB13F8D3D316},2020-06-24 00:00:00,Negative ID,2020-06-24,48.054887,-122.777137,ATT572_B7003E71-62E0-451F-9D11-06226E6D148A.jpg
{C0CD41A1-2503-4DBC-9251-7B0072908B72},2020-06-24 00:00:00,Negative ID,2020-06-24,47.716203,-122.29458,ATT573_9BDF84EE-6D4F-4289-BE09-82299D289400.jpg
{66CF544A-DAC3-4FB9-98DF-62F9E848CFEC},2020-06-24 00:00:00,Negative ID,2020-06-24,47.070274,-120.031115,ATT577_C0462DAC-59FB-473C-B164-CAAC2721CFFD.jpg
{66CF544A-DAC3-4FB9-98DF-62F9E848CFEC},2020-06-24 00:00:00,Negative ID,2020-06-24,47.070274,-120.031115,ATT578_E54BD89D-356E-4DC3-8648-BCDF83AC2C76.jpg
{C66B3835-3443-4846-8AD4-A8E08B7E8CB3},2020-06-24 00:00:00,Negative ID,2020-06-24,46.679153,-119.924229,ATT579_IMG_1680 (1).jpg
{11B632C0-1E97-4C29-8EF1-D95C1435F419},2019-08-25 00:00:00,Negative ID,2020-06-24,48.698967,-122.906356,ATT580_ORCAS ISLAND 1.jpg
{11B632C0-1E97-4C29-8EF1-D95C1435F419},2019-08-25 00:00:00,Negative ID,2020-06-24,48.698967,-122.906356,ATT581_ORCAS ISLAND.jpg
{5A0D8747-2CD5-4F77-86DF-A9CF6AFF289F},2020-06-24 00:00:00,Negative ID,2020-06-24,47.616488,-122.342152,ATT582_43887BB7-7C53-49EA-B725-C9BD3F8DBEB2.jpg
{F6A3C9CC-ADF0-403F-8067-FC45AED9FEE6},2020-06-24 00:00:00,Negative ID,2020-06-24,48.994043,-122.265018,ATT583_85E1BC94-0B90-482C-80A4-9934340B3D13.jpg
{CCB0E051-3B65-4DD2-9EE1-3613902EBCCB},2020-06-25 00:00:00,Negative ID,2020-06-25,47.327663,-122.673094,ATT584_2C1393ED-56F0-418F-AC9B-166B26493581.jpg
{84EC20AC-2EBA-435E-A8B8-95451E62156A},2020-06-24 00:00:00,Negative ID,2020-06-25,47.766972,-117.33551,ATT585_Hornet.jpg
{84EC20AC-2EBA-435E-A8B8-95451E62156A},2020-06-24 00:00:00,Negative ID,2020-06-25,47.766972,-117.33551,ATT586_Hornet-empty-abd.jpg
{0EBA2096-5B9F-433C-A914-0EA6D8DB124A},2020-06-24 00:00:00,Negative ID,2020-06-25,47.53208,-122.33301,ATT587_AGH_GH.jpg
{B2BBCD36-E93C-44F8-ACD4-5425907598B1},2020-06-24 00:00:00,Negative ID,2020-06-25,47.574509,-122.608247,ATT588_6C0F8F59-2D0C-4FD2-8024-5D19DD3552DC.jpg
{65B21253-29FE-4CA5-83B7-7FF593D50EA0},2020-06-25 00:00:00,Negative ID,2020-06-25,47.707137,-122.209704,ATT589_99255CEF-A920-4FDD-93C1-2278A5F050B9.jpg
{65B21253-29FE-4CA5-83B7-7FF593D50EA0},2020-06-25 00:00:00,Negative ID,2020-06-25,47.707137,-122.209704,ATT590_35236295-9A5D-4EE9-BA39-130D4F0BEF60.jpg
{65B21253-29FE-4CA5-83B7-7FF593D50EA0},2020-06-25 00:00:00,Negative ID,2020-06-25,47.707137,-122.209704,ATT591_CB77FE7C-4471-432D-AFB6-8F1F8EE5D61A.jpg
{A50CB52C-5828-4019-A6E0-310B20FB348E},2020-06-25 00:00:00,Negative ID,2020-06-25,48.944975,-122.76511,ATT592_20200625_143115.jpg
{A50CB52C-5828-4019-A6E0-310B20FB348E},2020-06-25 00:00:00,Negative ID,2020-06-25,48.944975,-122.76511,ATT593_20200625_143106.jpg
{A50CB52C-5828-4019-A6E0-310B20FB348E},2020-06-25 00:00:00,Negative ID,2020-06-25,48.944975,-122.76511,ATT594_20200625_143058.jpg
{07B4F276-4757-4E3B-B5F4-3DCA24445B69},2020-06-24 00:00:00,Negative ID,2020-06-25,48.03897,-118.265801,ATT595_18434C37-3ED0-48CE-BED3-056FCA192ED8.jpg
{07848B4E-5501-4B83-993A-687FE7BC1F7C},2020-06-23 00:00:00,Negative ID,2020-06-26,47.950241,-116.873687,ATT596_9DBA4A47-7E89-4542-8E19-3786D0EDAB88.jpg
{07848B4E-5501-4B83-993A-687FE7BC1F7C},2020-06-23 00:00:00,Negative ID,2020-06-26,47.950241,-116.873687,ATT597_BE271844-ABFA-4253-A20A-797D4F327086.jpg
{449A06FD-477E-47B6-82A9-4CDD4887F2D2},2020-06-26 00:00:00,Negative ID,2020-06-26,47.504575,-122.377286,ATT598_90A5F77C-D83C-48A6-ABDB-D774AC60243E.jpg
{F0B11E4E-EA9E-451F-A847-DC7E2564FCE9},2020-06-26 00:00:00,Negative ID,2020-06-26,47.580535,-122.30897,ATT599_6A04BC88-2613-45B1-BD81-23C2CC4DB38D.jpg
{F0B11E4E-EA9E-451F-A847-DC7E2564FCE9},2020-06-26 00:00:00,Negative ID,2020-06-26,47.580535,-122.30897,ATT600_57CF7BB6-7A73-4DA8-BFC9-083C4F9F9C20.jpg
{F0B11E4E-EA9E-451F-A847-DC7E2564FCE9},2020-06-26 00:00:00,Negative ID,2020-06-26,47.580535,-122.30897,ATT601_BDD98E73-6BC7-4990-801E-41817D53CDFC.jpg
{95659700-6837-4A68-BB2A-6AA7E3176DDB},2020-06-26 00:00:00,Negative ID,2020-06-26,47.098045,-122.641664,ATT602_BB8FBD89-5595-409F-A031-5FE11E17EACC.jpg
{FF7C3F8B-F11E-4428-9A35-8CB396850425},2020-06-26 00:00:00,Negative ID,2020-06-26,47.736171,-117.488668,ATT603_image.jpg
{BF845304-DDD4-45B8-86C2-77AE812C8AF5},2020-06-26 00:00:00,Negative ID,2020-06-26,47.356237,-122.608342,ATT604_0626201113a.jpg
{BF845304-DDD4-45B8-86C2-77AE812C8AF5},2020-06-26 00:00:00,Negative ID,2020-06-26,47.356237,-122.608342,ATT605_0626201113a~2.jpg
{81F5BA0F-97D5-4B62-BA99-1CDBB8CA2B4B},2020-06-25 00:00:00,Negative ID,2020-06-26,48.99404,-122.74888,ATT606_20200626_125948.jpg
{5A912BE8-9085-40B2-B3A6-AFE034072AC9},2020-06-26 00:00:00,Negative ID,2020-06-26,47.62984,-120.68945,ATT607_96AE4A84-08A2-4F6C-AF1D-88A111049F2F.jpg
{5750B38B-3DFE-43C7-9154-690D735F80F8},2020-06-26 00:00:00,Negative ID,2020-06-26,47.97659,-122.20596,ATT608_CDD667BC-BEF3-4E55-83E3-1894E452205B.jpg
{810DB953-E9E5-4A72-96CF-ABD6D440EBB6},2020-06-26 00:00:00,Negative ID,2020-06-26,48.762519,-122.335409,ATT609_B1DA24D6-E3ED-458C-9124-2D49AB77A4C1.jpg
{810DB953-E9E5-4A72-96CF-ABD6D440EBB6},2020-06-26 00:00:00,Negative ID,2020-06-26,48.762519,-122.335409,ATT610_7E6D7F40-0C18-4C97-A10D-369C1A8BDE13.jpg
{7026B8B0-B647-4B66-9604-9F51928C2CFF},2020-06-26 00:00:00,Negative ID,2020-06-26,48.397608,-122.223061,ATT611_83E113E6-1E48-495C-BA11-FF303D9B80D0.jpg
{2F115B96-4573-4759-B72A-966006431FC3},2020-06-27 00:00:00,Negative ID,2020-06-27,46.293984,-119.288958,ATT612_20200626_170809.jpg
{29763884-14B9-40C3-9531-455755D41400},2020-06-27 00:00:00,Negative ID,2020-06-27,47.286369,-122.29237,ATT613_6DDA37CB-C7AA-499F-BE80-F5624650436F.jpg
{07AACADA-6EA6-4D5C-A9E3-349C901EB421},2020-06-27 00:00:00,Negative ID,2020-06-27,48.764655,-122.462429,ATT614_15932825844454005983750912920710.jpg
{07AACADA-6EA6-4D5C-A9E3-349C901EB421},2020-06-27 00:00:00,Negative ID,2020-06-27,48.764655,-122.462429,ATT615_1593282617477944750912965150075.jpg
{30876E05-DBC6-4EAB-AD62-FDF9CB7DD6A1},2020-06-27 00:00:00,Negative ID,2020-06-27,47.71675,-122.13472,ATT616_E423BF9B-35F5-4C2A-AEB1-16DFC62AB234.jpg
{2E5998C5-99B7-413D-BE51-10F565DE9CC0},2020-06-27 00:00:00,Negative ID,2020-06-27,47.762372,-120.166098,ATT617_IMG_2195.jpg
{E34BBFF2-0741-4EB1-9D16-6932B0721DFC},2020-06-27 00:00:00,Negative ID,2020-06-28,47.166193,-122.118139,ATT618_20200627_143833.jpg
{76CFCAFE-E70D-4E91-951C-4BAB109C5ACD},2020-06-28 00:00:00,Negative ID,2020-06-28,47.50142,-122.259726,ATT619_105705862_196721768355638_5627690462337176007_n.jpg
{0CF7C971-9B8F-4E7F-BB77-AE17039BD3E9},2020-06-27 00:00:00,Negative ID,2020-06-29,47.59061,-119.38659,ATT620_20200627_104302.jpg
{00A16769-A2AF-4728-9CC2-E37DE45FB7F5},2020-06-28 00:00:00,Negative ID,2020-06-29,47.568041,-122.637503,ATT621_IMG_20200628_144748.jpg
{00A16769-A2AF-4728-9CC2-E37DE45FB7F5},2020-06-28 00:00:00,Negative ID,2020-06-29,47.568041,-122.637503,ATT622_IMG_20200628_144927.jpg
{00A16769-A2AF-4728-9CC2-E37DE45FB7F5},2020-06-28 00:00:00,Negative ID,2020-06-29,47.568041,-122.637503,ATT623_IMG_20200628_144954.jpg
{CBD84AC8-45C4-407F-AB78-C6A5D91003EB},2020-06-29 00:00:00,Negative ID,2020-06-29,47.218194,-122.434393,ATT624_45350D90-3D56-4352-81F3-C98884DEFC9A.jpg
{1379F5DD-7195-4F30-985B-59B48132AEC1},2020-06-29 00:00:00,Negative ID,2020-06-29,46.250239,-119.329838,ATT625_IMG_9191.jpg
{1379F5DD-7195-4F30-985B-59B48132AEC1},2020-06-29 00:00:00,Negative ID,2020-06-29,46.250239,-119.329838,ATT626_IMG_9190.jpg
{FAC9D333-9500-47D4-9996-7E62B1A5B2AC},2020-06-29 00:00:00,Negative ID,2020-06-29,47.677787,-122.297357,ATT627_C5AB67B7-5A6B-4AFA-8D01-08D5AC72C808.jpg
{FAC9D333-9500-47D4-9996-7E62B1A5B2AC},2020-06-29 00:00:00,Negative ID,2020-06-29,47.677787,-122.297357,ATT628_24C1C389-195F-444A-BECB-C07A25EFF5EE.jpg
{6C469A11-15D9-4EF0-BAC2-E21F5DA3770E},2020-06-29 00:00:00,Negative ID,2020-06-29,48.069517,-123.226411,ATT629_20200629_110809.jpg
{6C469A11-15D9-4EF0-BAC2-E21F5DA3770E},2020-06-29 00:00:00,Negative ID,2020-06-29,48.069517,-123.226411,ATT630_20200629_111229.jpg
{6C469A11-15D9-4EF0-BAC2-E21F5DA3770E},2020-06-29 00:00:00,Negative ID,2020-06-29,48.069517,-123.226411,ATT631_20200629_111215.jpg
{F1B78F72-9664-4656-8232-86192848AA1A},2020-06-29 00:00:00,Negative ID,2020-06-29,47.943097,-122.107435,ATT632_20200629_122505.jpg
{98DA60D5-A896-426F-83E1-31C0EBB5F16D},2020-06-29 00:00:00,Negative ID,2020-06-29,47.98494,-122.212551,ATT633_99EAE380-FA95-4FB0-B488-AC0ED7A033A2.jpg
{98DA60D5-A896-426F-83E1-31C0EBB5F16D},2020-06-29 00:00:00,Negative ID,2020-06-29,47.98494,-122.212551,ATT634_19B21D5E-EC91-4E99-90AB-EB1AA54DDD9C.jpg
{7047334E-DC88-4D5C-AB2E-48D39E6F1949},2020-06-30 00:00:00,Negative ID,2020-06-30,47.200122,-122.532709,ATT635_16086363-441D-42E6-B5AE-8EA6A0EF3A12.jpg
{30F932BA-EBC3-42E8-B416-422D4BE3A02F},2020-06-30 00:00:00,Negative ID,2020-06-30,47.819557,-122.267824,ATT636_20200629_172931.jpg
{B58F670D-5470-4AA8-AD63-77CAC795BA1F},2020-06-30 00:00:00,Negative ID,2020-06-30,47.444534,-120.30271,ATT637_3E475EDF-7F0C-40E3-B793-B1A84DA482A2.png
{9598CDEC-D627-461C-A181-DF43C7FEAABB},2020-06-28 00:00:00,Negative ID,2020-06-30,47.174842,-122.333111,ATT638_513512F5-AC7B-4A2E-80A9-6D73B3C93136.jpg
{DEB910D6-2086-4C91-B3F4-9D33CFA353EA},2020-06-30 00:00:00,Negative ID,2020-06-30,47.311416,-122.330187,ATT639_20200630_110005.jpg
{0794C409-7322-4387-8E21-8CB6505E6316},2020-06-30 00:00:00,Negative ID,2020-06-30,47.305708,-122.210226,ATT640_20200630_112121.jpg
{0794C409-7322-4387-8E21-8CB6505E6316},2020-06-30 00:00:00,Negative ID,2020-06-30,47.305708,-122.210226,ATT641_20200630_111515.jpg
{0794C409-7322-4387-8E21-8CB6505E6316},2020-06-30 00:00:00,Negative ID,2020-06-30,47.305708,-122.210226,ATT642_20200630_110704.jpg
{4CA4C7FA-02CD-493E-A2F8-48D666AB152D},2020-06-30 00:00:00,Negative ID,2020-06-30,48.01479,-122.06411,ATT643_IMG_1936.jpg
{C141E3B0-8B74-4451-AFDC-ECE15D774A02},2020-06-30 00:00:00,Negative ID,2020-06-30,47.001418,-122.809026,ATT644_unusual wasp or hornet - Lacey WA.jpg
{3D40C137-50F7-4ED0-8C9D-BC1C628EAB14},2020-06-29 00:00:00,Negative ID,2020-06-30,48.08158,-121.96931,ATT645_inbound2908398440565189305.jpg
{8467BB00-C05F-46A8-B964-7BAAF19600D3},2020-06-30 00:00:00,Negative ID,2020-06-30,47.07493,-122.713043,ATT646_F414E6D5-8C05-4837-B68F-D329C9A21446.jpg
{3E913BDB-6932-46BC-B1AF-75EC2FD7C7D2},2020-07-01 00:00:00,Negative ID,2020-07-01,47.851343,-120.035296,ATT648_murder hornet.jpg
{6B094807-4E29-44BC-A61E-DCA49EB64ACB},2020-07-01 00:00:00,Negative ID,2020-07-01,46.96679,-117.91437,ATT649_inbound9171422197861091881.jpg
{AB3F2F74-73AC-4BF6-B6A8-F4EEA97AD3C8},2020-07-01 00:00:00,Negative ID,2020-07-01,47.406496,-122.647241,ATT650_851205D7-8A09-4E70-B3BD-D723562CDEEC.jpg
{8AEE9882-FD21-4E71-A0F0-8D59EC8E3EAC},2020-07-01 00:00:00,Negative ID,2020-07-01,47.072699,-122.712731,ATT651_20200701_131723.jpg
{381E47D2-8460-4BD4-9A60-DC18DC47DD8C},2020-06-29 00:00:00,Negative ID,2020-07-02,47.668648,-122.343328,ATT652_trim.D6D9C1B6-9792-4AD0-9EAC-2676D4139DDB.MOV
{3D4539D0-E0E7-4F34-84BC-E9D5E454BAAF},2020-06-29 00:00:00,Negative ID,2020-07-02,47.433547,-122.341049,ATT653_20200628_173824.jpg
{3D4539D0-E0E7-4F34-84BC-E9D5E454BAAF},2020-06-29 00:00:00,Negative ID,2020-07-02,47.433547,-122.341049,ATT654_20200628_173946.jpg
{EB82514B-FCDB-458C-BE06-0EFFAF878366},2020-07-02 00:00:00,Negative ID,2020-07-02,48.105185,-123.443025,ATT655_A9843C6F-7800-471F-B8B4-DB101D2FC959.jpg
{EB82514B-FCDB-458C-BE06-0EFFAF878366},2020-07-02 00:00:00,Negative ID,2020-07-02,48.105185,-123.443025,ATT656_6F6B3151-6E6B-4CC9-80D3-815B7DD3F68E.jpg
{B9F8AEB0-4330-427B-9039-A456275ED88B},2020-07-02 00:00:00,Negative ID,2020-07-02,47.909895,-122.192289,ATT657_IMG_2581.jpg
{B9F8AEB0-4330-427B-9039-A456275ED88B},2020-07-02 00:00:00,Negative ID,2020-07-02,47.909895,-122.192289,ATT658_IMG_2582.jpg
{B9F8AEB0-4330-427B-9039-A456275ED88B},2020-07-02 00:00:00,Negative ID,2020-07-02,47.909895,-122.192289,ATT659_IMG_2583.jpg
{EC973A0B-F285-4B0E-B788-D9956365EDD3},2020-07-02 00:00:00,Negative ID,2020-07-02,47.514864,-120.478976,ATT660_image.jpg
{690A0FF7-FB17-4A3D-913F-F5B829E13C74},2020-07-02 00:00:00,Negative ID,2020-07-02,48.796917,-122.461839,ATT661_IMG_20200702_090947541_BURST000_COVER.jpg
{0E79AB4C-6BAA-4A7C-84BA-5412BC42EDC3},2020-07-01 00:00:00,Negative ID,2020-07-02,47.714843,-121.986201,ATT662_IMG_9349.jpg
{65A06C34-9010-443D-B110-69D8DD7FBEF6},2020-07-02 00:00:00,Negative ID,2020-07-02,47.40118,-120.30716,ATT663_20200702_124703.jpg
{B04C9EDD-16E8-4FA4-9718-54F2DE3ABDDD},2020-07-02 00:00:00,Negative ID,2020-07-02,48.901814,-122.56874,ATT664_IMG_2710.jpg
{9366C47F-09CE-4C8C-BFC5-3F77E0ACC891},2020-07-02 00:00:00,Negative ID,2020-07-02,47.59582,-120.2441,ATT665_20200702_160625.jpg
{4920C881-02CB-4636-BEBD-8AA49D736271},2020-06-23 00:00:00,Negative ID,2020-07-03,47.742839,-122.105377,ATT666_E8C0AA14-0A5A-4CDF-850F-70B9E78DC81C.jpg
{4920C881-02CB-4636-BEBD-8AA49D736271},2020-06-23 00:00:00,Negative ID,2020-07-03,47.742839,-122.105377,ATT667_F8C4B7CC-79A5-41F7-A4C3-494F346CA308.jpg
{492BFF2E-95F8-450F-8F63-6EC5CDAAAAAD},2020-07-03 00:00:00,Negative ID,2020-07-03,46.21261,-119.251341,ATT668_Wasp 1.jpg
{492BFF2E-95F8-450F-8F63-6EC5CDAAAAAD},2020-07-03 00:00:00,Negative ID,2020-07-03,46.21261,-119.251341,ATT669_Wasp 2.jpg
{492BFF2E-95F8-450F-8F63-6EC5CDAAAAAD},2020-07-03 00:00:00,Negative ID,2020-07-03,46.21261,-119.251341,ATT670_Wasp 3.jpg
{6D9576D7-9133-471F-B7BB-670F436D48AB},2020-07-03 00:00:00,Negative ID,2020-07-03,47.523026,-120.293274,ATT671_IMG_20200702_191058375_HDR.jpg
{6D9576D7-9133-471F-B7BB-670F436D48AB},2020-07-03 00:00:00,Negative ID,2020-07-03,47.523026,-120.293274,ATT672_IMG_20200702_191205478_HDR.jpg
{E0734B9B-D022-492D-B226-8B7B6535EAFE},2020-07-03 00:00:00,Negative ID,2020-07-03,48.944322,-122.480312,ATT673_066E9971-C2F6-4C60-9D53-52F5C3753E57.jpg
{8D074A20-E5C1-42FB-86EF-48CD62C1225B},2020-07-03 00:00:00,Negative ID,2020-07-03,46.453624,-119.018948,ATT674_received_617735682473470.jpg
{2D4A6FC9-BC15-4B33-9C28-2203D55BB4F1},2020-07-03 00:00:00,Negative ID,2020-07-03,48.615546,-117.929221,ATT675_huge hornet.jpg
{55CC36EA-368B-443B-941D-766C06CC19B5},2020-07-03 00:00:00,Negative ID,2020-07-03,48.172847,-122.629824,ATT676_3761B6DA-4E3C-4721-80A5-193F4E4299E2.jpg
{EDF2E1AA-F473-40A2-BC68-FE678EBBEE51},2020-07-04 00:00:00,Negative ID,2020-07-04,47.4263,-119.27844,ATT677_7FD78807-65EF-4D51-B6B7-9D87C0AF51A2.jpg
{FD48719A-0D8F-44C9-B23B-A21F3918F1D4},2020-07-04 00:00:00,Negative ID,2020-07-04,47.556397,-121.910806,ATT678_hornet1.jpg
{FD48719A-0D8F-44C9-B23B-A21F3918F1D4},2020-07-04 00:00:00,Negative ID,2020-07-04,47.556397,-121.910806,ATT679_hornet2.jpg
{D13FCFE9-2054-48BF-B2E7-05853E6A130C},2020-07-03 00:00:00,Negative ID,2020-07-04,47.39293,-119.47636,ATT681_3C01DAF8-CFC7-4D1C-8D0B-9E5A81427BBB.jpg
{75A21B42-8E47-4840-99E4-7B06C809BA97},2020-05-24 00:00:00,Negative ID,2020-07-04,47.22499,-122.46741,ATT682_IMG_20200524_144720.jpg
{8D12C2CF-D1DD-4CEF-B270-3BC7A1411AE5},2020-07-04 00:00:00,Negative ID,2020-07-04,46.301344,-119.558755,ATT683_20200704_090950.jpg
{096E530A-DF58-4A49-8756-71A3A2E692C7},2020-07-04 00:00:00,Negative ID,2020-07-04,47.485743,-123.079233,ATT684_D0D18A41-DD19-4E91-BF8B-752A63BC8DC9.jpg
{0DA6C32D-152F-4E60-B67C-059C6E59D838},2020-07-04 00:00:00,Negative ID,2020-07-04,48.660327,-122.387307,ATT685_C1D31780-4EFF-4188-A20A-75C5DE24F1AE.jpg
{0DA6C32D-152F-4E60-B67C-059C6E59D838},2020-07-04 00:00:00,Negative ID,2020-07-04,48.660327,-122.387307,ATT686_14288D92-45D7-4493-B5DD-5E5E1AE8F53B.jpg
{7D30F175-F7AA-4C93-9E94-02F2E25D09E3},2020-07-04 00:00:00,Negative ID,2020-07-04,47.9796,-122.35803,ATT687_11569231-183A-4ADA-AC43-CCB4D1AEA867.jpg
{9D928E9D-4995-41D1-A050-6F43AC2D59A5},2020-07-04 00:00:00,Negative ID,2020-07-04,47.93669,-122.227271,ATT688_0C91D373-DD65-4669-874E-C8A31C9B98FF.jpg
{492FBEF0-C94F-45B2-8709-836C591C53C3},2020-07-04 00:00:00,Negative ID,2020-07-04,47.21782,-122.46766,ATT689_20200704_114840.jpg
{79C11696-B450-4F42-A86C-0BE5CADFBC26},2020-07-04 00:00:00,Negative ID,2020-07-04,47.3334,-119.55158,ATT690_0.jpg
{189992BF-C7FB-4CB4-9179-5046D8283CBE},2020-07-04 00:00:00,Negative ID,2020-07-04,46.966605,-122.606666,ATT691_C129C9CF-0770-400A-A9D3-0BEE6EDFD3AD.jpg
{A118F200-BB4F-462D-B767-8A35089A6E4C},2020-07-05 00:00:00,Negative ID,2020-07-05,47.8408,-120.0168,ATT692_image.jpg
{A118F200-BB4F-462D-B767-8A35089A6E4C},2020-07-05 00:00:00,Negative ID,2020-07-05,47.8408,-120.0168,ATT693_image.jpg
{A118F200-BB4F-462D-B767-8A35089A6E4C},2020-07-05 00:00:00,Negative ID,2020-07-05,47.8408,-120.0168,ATT694_image.jpg
{E51E5C1B-56EA-4B5B-8133-C5B2BD11BA30},2020-07-05 00:00:00,Negative ID,2020-07-05,47.43609,-120.28102,ATT695_20200704_171508.jpg
{E51E5C1B-56EA-4B5B-8133-C5B2BD11BA30},2020-07-05 00:00:00,Negative ID,2020-07-05,47.43609,-120.28102,ATT696_20200704_171511.jpg
{4AEDBAFC-4CCA-477F-A9A6-D6C392AA3802},2020-07-05 00:00:00,Negative ID,2020-07-05,48.942541,-122.763153,ATT697_512E848E-B666-44A8-89FE-DEEC4DE1C69E.jpg
{00FABFBB-3504-4E46-8F2A-405559F2C74D},2020-07-05 00:00:00,Negative ID,2020-07-05,47.890674,-122.15987,ATT698_6FF0EDEF-D563-4463-8F1E-5BCBEC63641D.jpg
{2804EAEF-BDA4-409D-B02C-4112A722B84E},2020-07-05 00:00:00,Negative ID,2020-07-05,46.28427,-119.18917,ATT699_A9834BCE-AB3E-455C-B735-A68D4FF0F5EC.jpg
{0E818BD0-9B13-48A0-A951-CEBCCEDB7F6B},2020-07-05 00:00:00,Negative ID,2020-07-05,48.757767,-122.496868,ATT700_E10BC371-4EF6-47FF-9A50-8339F1FB7738.jpg
{0E818BD0-9B13-48A0-A951-CEBCCEDB7F6B},2020-07-05 00:00:00,Negative ID,2020-07-05,48.757767,-122.496868,ATT701_DC483C32-24F3-41F3-99D1-B6083A8C446A.jpg
{249263FD-97E4-41EE-B764-0C4ECB1BB603},2020-07-04 00:00:00,Negative ID,2020-07-05,48.886611,-122.415481,ATT702_2A50E8DD-18F7-4114-A786-082691BEA8E4.jpg
{545B542C-5030-471B-87A6-206319DD6B10},2020-07-05 00:00:00,Negative ID,2020-07-05,47.578982,-122.284462,ATT703_Hornet_.jpg
{79BCB5BD-E743-491B-9F00-0F8D5CCCA170},2020-07-05 00:00:00,Negative ID,2020-07-05,47.646366,-122.35795,ATT705_hornet.png
{33026A8E-99E5-4FAC-8E8D-C22373CB5613},2020-07-05 00:00:00,Negative ID,2020-07-05,47.573401,-121.93492,ATT706_AF7A5DAD-EE12-47C8-A0CB-30317A65CC52.jpg
{01A01074-C6CA-4CC7-B8E6-3B22BDA73B4A},2020-07-06 00:00:00,Negative ID,2020-07-06,47.846023,-122.508676,ATT707_IMG_20200705_172118.jpg
{48E04E7E-C472-4F72-BE49-A1C8EAC1CBF5},2020-07-06 00:00:00,Negative ID,2020-07-06,47.349852,-120.329027,ATT708_F10D5431-6E52-4ECB-A52B-91BCC78AE0CF.jpg
{C2D75AED-2828-4778-A3C6-EE02D4D9BD6F},2020-07-06 00:00:00,Negative ID,2020-07-06,47.644813,-122.387983,ATT709_024F59E1-A710-4271-8756-58F9D2D32B29.jpg
{0CAB0300-CE60-468A-BCB8-D43963010AC6},2020-07-06 00:00:00,Negative ID,2020-07-06,47.968932,-122.207196,ATT710_15939998897872012090487.jpg
{FF2A21DC-D68D-48F7-9B5A-5C6EA46764C0},2020-07-04 00:00:00,Negative ID,2020-07-06,47.20433,-121.99136,ATT711_990C7949-8427-43A1-87BC-45DF5D2AC35F.jpg
{76997EF3-87CB-45C2-BB2E-3150FCA17364},2020-07-06 00:00:00,Negative ID,2020-07-06,46.190609,-119.218421,ATT712_2E1FD93F-1C09-41F2-B45F-593D29002C69.jpg
{7DD7EEF3-9611-4827-8220-103DC7ABDBE5},2020-07-06 00:00:00,Negative ID,2020-07-06,47.690819,-122.402076,ATT713_6768F3A9-B818-4065-8D76-EF7BDAEC19EE.jpg
{E834B77E-BF3E-47E5-A897-A0ECB19EF279},2020-07-05 00:00:00,Negative ID,2020-07-06,46.995183,-124.162988,ATT714_Screenshot_20200705-102112_Gallery.jpg
{DF4AAEFF-0794-44FC-8374-E6F6BF190862},2020-07-06 00:00:00,Negative ID,2020-07-06,47.34897,-122.56824,ATT715_IMG_5476.jpg
{DF4AAEFF-0794-44FC-8374-E6F6BF190862},2020-07-06 00:00:00,Negative ID,2020-07-06,47.34897,-122.56824,ATT716_IMG_5479.jpg
{DF4AAEFF-0794-44FC-8374-E6F6BF190862},2020-07-06 00:00:00,Negative ID,2020-07-06,47.34897,-122.56824,ATT717_IMG_5477.jpg
{DF4AAEFF-0794-44FC-8374-E6F6BF190862},2020-07-06 00:00:00,Negative ID,2020-07-06,47.34897,-122.56824,ATT718_IMG_5507.jpg
{DF4AAEFF-0794-44FC-8374-E6F6BF190862},2020-07-06 00:00:00,Negative ID,2020-07-06,47.34897,-122.56824,ATT719_IMG_5508.jpg
{1213926B-764D-4A5E-A088-189F9F5F7FD5},2020-07-06 00:00:00,Negative ID,2020-07-06,48.067093,-122.144207,ATT720_57CA39F2-4275-4EC5-8F6B-028381DD1508.jpg
{932CD8C8-FDEE-4C3B-9854-D10801863A46},2020-04-20 00:00:00,Negative ID,2020-07-06,46.56685,-117.13003,ATT721_Hornet 1 front view.jpg
{932CD8C8-FDEE-4C3B-9854-D10801863A46},2020-04-20 00:00:00,Negative ID,2020-07-06,46.56685,-117.13003,ATT722_hornet 1.jpg
{600CCA36-2B4B-4121-AC58-0D71C23491E7},2020-07-06 00:00:00,Negative ID,2020-07-06,48.90625,-122.64187,ATT723_C0102F29-5F97-4F9B-A233-15C45640CD1B.jpg
{600CCA36-2B4B-4121-AC58-0D71C23491E7},2020-07-06 00:00:00,Negative ID,2020-07-06,48.90625,-122.64187,ATT724_8D83718A-AE6B-4BED-9CBC-D0B5037A306E.jpg
{59C6A8C1-F8AE-44D5-9B4D-1D847A1047EA},2020-07-06 00:00:00,Negative ID,2020-07-06,47.680227,-122.369057,ATT725_EE410333-C4D8-4CBF-8696-F0870B9F2E03.jpg
{59C6A8C1-F8AE-44D5-9B4D-1D847A1047EA},2020-07-06 00:00:00,Negative ID,2020-07-06,47.680227,-122.369057,ATT726_DF96DC0B-F9C7-4F99-B9FA-ED001EE62545.jpg
{59C6A8C1-F8AE-44D5-9B4D-1D847A1047EA},2020-07-06 00:00:00,Negative ID,2020-07-06,47.680227,-122.369057,ATT727_C3E47654-BC74-4BCB-992D-BB313D479B1B.jpg
{51BCF540-6339-48D2-97B1-71BF4553D65D},2020-07-05 00:00:00,Negative ID,2020-07-06,46.222054,-119.273817,ATT728_Japanese hornet.jpg
{93C76902-373D-4F4A-84B6-D2F81A3E47E4},2020-07-06 00:00:00,Negative ID,2020-07-06,46.51784,-118.12447,ATT729_image.jpg
{DFD9ACF1-7985-4036-AE3C-F5321897A168},2020-07-05 00:00:00,Negative ID,2020-07-06,48.105649,-119.783335,ATT730_0D411DEE-8B75-46A6-BBC6-ED19FD6F3227.jpg
{E7AEF411-4956-4E21-B997-624C3AFD6A3C},2020-07-06 00:00:00,Negative ID,2020-07-06,47.487069,-120.40347,ATT731_20200706_130648.jpg
{E89BF684-9BB2-4CDD-923A-0E2DDF1969C6},2020-07-06 00:00:00,Negative ID,2020-07-06,47.864698,-122.199884,ATT732_image.jpg
{E89BF684-9BB2-4CDD-923A-0E2DDF1969C6},2020-07-06 00:00:00,Negative ID,2020-07-06,47.864698,-122.199884,ATT733_image.jpg
{E89BF684-9BB2-4CDD-923A-0E2DDF1969C6},2020-07-06 00:00:00,Negative ID,2020-07-06,47.864698,-122.199884,ATT734_image.jpg
{70E4D05B-72CD-4C48-BF11-84BD66465FE6},2020-07-06 00:00:00,Negative ID,2020-07-06,47.8408,-120.0168,ATT735_3B0B309F-C240-4F35-B9A0-BC386B734340.jpg
{70E4D05B-72CD-4C48-BF11-84BD66465FE6},2020-07-06 00:00:00,Negative ID,2020-07-06,47.8408,-120.0168,ATT736_5FBA3317-3889-4AA9-893B-1077EC896FF1.jpg
{5333B813-1849-48A2-9346-3F2AB64AAD82},2020-07-05 00:00:00,Negative ID,2020-07-06,46.724126,-120.809909,ATT737_20200704_134910.jpg
{5333B813-1849-48A2-9346-3F2AB64AAD82},2020-07-05 00:00:00,Negative ID,2020-07-06,46.724126,-120.809909,ATT738_20200704_134905.jpg
{5238DE8D-0941-4B80-AA62-498346F3707F},2020-07-06 00:00:00,Negative ID,2020-07-06,47.56812,-121.89086,ATT739_92A75B84-D50B-40A7-A53D-68EE9D96A9A5.jpg
{F53D3381-A4E8-4D2E-8CFA-82EC40785888},2020-07-06 00:00:00,Negative ID,2020-07-07,47.486771,-120.330481,ATT740_image.jpg
{408BC7F1-8DC5-497C-8089-B123DB163528},2020-07-07 00:00:00,Negative ID,2020-07-07,47.880638,-120.131697,ATT741_B012ECC8-F83E-4C58-A274-D5B76AD9277F.jpg
{C7FD7E34-0EF2-42BA-BA9C-B56E20C03D9B},2020-07-07 00:00:00,Negative ID,2020-07-07,47.358519,-120.32918,ATT742_A827E765-ACC9-4341-8A16-93CB845F274F.jpg
{5ABAAF7A-5A2A-4AE3-8683-5C2BA1802F07},2020-07-06 00:00:00,Negative ID,2020-07-07,48.971936,-122.639088,ATT743_trim.9E29DE40-A7A1-45E8-9BCE-5ED0880D6BE7.MOV
{A2C2E024-E8C3-4EC1-B48E-EEAC58CC3CD4},2020-07-07 00:00:00,Negative ID,2020-07-07,47.299003,-122.225499,ATT744_15940888799454056941140699579059.jpg
{36B98346-2EA3-412C-BB3A-074F0F5C13AA},2020-07-06 00:00:00,Negative ID,2020-07-07,48.267183,-122.27367,ATT745_51BCF7C5-F120-44E0-ACE6-B0B58F73B23F.jpg
{C232DEB4-0ED3-40CB-8697-C64732282BB1},2020-07-07 00:00:00,Negative ID,2020-07-07,48.266817,-122.274543,ATT746_98900A32-E6F2-4F76-AD21-7F7C58E49BAE.jpg
{003166CE-682C-40AD-9850-8F9CB145B79D},2020-07-07 00:00:00,Negative ID,2020-07-07,48.935934,-122.736701,ATT747_20200706_105832.jpg
{003166CE-682C-40AD-9850-8F9CB145B79D},2020-07-07 00:00:00,Negative ID,2020-07-07,48.935934,-122.736701,ATT748_20200706_103840.jpg
{003166CE-682C-40AD-9850-8F9CB145B79D},2020-07-07 00:00:00,Negative ID,2020-07-07,48.935934,-122.736701,ATT749_20200706_105919.jpg
{68F4CB52-A74E-4394-96FD-5834E67F78E6},2020-07-02 00:00:00,Negative ID,2020-07-07,47.124822,-122.337135,ATT750_2ED14444-F55F-4941-855D-41D951434576.jpg
{1509AE0A-800F-4CFB-85FB-F27B713ED5EE},2020-07-05 00:00:00,Negative ID,2020-07-07,47.421535,-119.121403,ATT751_29485.jpg
{5016D19A-A5A2-43E6-92E4-9E623F437772},2020-07-07 00:00:00,Negative ID,2020-07-07,47.288785,-122.497881,ATT752_833C8928-84F4-4613-8F64-CE29A9AC2A74.jpg
{D86E1391-5D31-4177-A179-ECFFC68AB934},2020-07-04 00:00:00,Negative ID,2020-07-07,47.77205,-120.11865,ATT753_7292882D-33C4-4E4A-AE33-62EBCBCE1C8C.jpg
{D86E1391-5D31-4177-A179-ECFFC68AB934},2020-07-04 00:00:00,Negative ID,2020-07-07,47.77205,-120.11865,ATT754_A6AAD7E5-883E-4FC6-9424-512DA4B23677.jpg
{D86E1391-5D31-4177-A179-ECFFC68AB934},2020-07-04 00:00:00,Negative ID,2020-07-07,47.77205,-120.11865,ATT755_26586DA9-65AA-49BD-B3CE-71514ACF3D7B.jpg
{59BC5448-4625-4E79-B803-BDB928C4F644},2020-07-07 00:00:00,Negative ID,2020-07-07,47.423294,-122.341813,ATT757_20200707_161222.jpg
{C954346F-0FEB-41D1-B732-F07307FA6445},2020-07-08 00:00:00,Negative ID,2020-07-08,48.837427,-122.533326,ATT758_30551408-D0EE-4C0F-8D8A-4EF77DB4CC18.jpg
{43383C24-1ED1-4BCD-AE6E-34565E0E9BD6},2020-07-08 00:00:00,Negative ID,2020-07-08,47.63898,-122.39303,ATT759_F41BF051-1AEC-4147-A1D6-AEA8188828DA.jpg
{43383C24-1ED1-4BCD-AE6E-34565E0E9BD6},2020-07-08 00:00:00,Negative ID,2020-07-08,47.63898,-122.39303,ATT760_3CF41C0A-2180-4377-9C7E-F4429DFD4D84.jpg
{43383C24-1ED1-4BCD-AE6E-34565E0E9BD6},2020-07-08 00:00:00,Negative ID,2020-07-08,47.63898,-122.39303,ATT761_036BE90D-C3C6-4BEB-847F-84CFA3B1101D.jpg
{611D42B4-8410-4276-A9BB-60A8643E20DE},2020-07-08 00:00:00,Negative ID,2020-07-08,46.815361,-122.994037,ATT762_A. Hornet 1.jpg
{611D42B4-8410-4276-A9BB-60A8643E20DE},2020-07-08 00:00:00,Negative ID,2020-07-08,46.815361,-122.994037,ATT763_A. Hornet 2.jpg
{35511058-9A10-4E7B-BA7D-5DE295AD96DB},2020-07-08 00:00:00,Negative ID,2020-07-08,46.218477,-119.264509,ATT764_Harvey1.jpg
{35511058-9A10-4E7B-BA7D-5DE295AD96DB},2020-07-08 00:00:00,Negative ID,2020-07-08,46.218477,-119.264509,ATT765_Harvey2.jpg
